[{
    "city": "Silopi, Turkey",
    "coords": {
        "lat": "37.248",
        "lng": "42.451"
    }
}, {
    "city": "Ptuj, Slovenia",
    "coords": {
        "lat": "46.422",
        "lng": "15.863"
    }
}, {
    "city": "Polzela, Slovenia",
    "coords": {
        "lat": "46.304",
        "lng": "15.085"
    }
}, {
    "city": "Balikesir, Turkey",
    "coords": {
        "lat": "39.645",
        "lng": "27.885"
    }
}, {
    "city": "Ortnek, Slovenia",
    "coords": {
        "lat": "45.792",
        "lng": "14.679"
    }
}, {
    "city": "Tekirdag, Turkey",
    "coords": {
        "lat": "40.978",
        "lng": "27.519"
    }
}, {
    "city": "Liptovský Mikuláš, Slovakia",
    "coords": {
        "lat": "49.086",
        "lng": "19.606"
    }
}, {
    "city": "Maribor, Slovenia",
    "coords": {
        "lat": "46.562",
        "lng": "15.648"
    }
}, {
    "city": "Izmit, Turkey",
    "coords": {
        "lat": "40.771",
        "lng": "30.025"
    }
}, {
    "city": "Belgrade, Serbia",
    "coords": {
        "lat": "44.813",
        "lng": "20.463"
    }
}, {
    "city": "Belgrade, Serbia",
    "coords": {
        "lat": "44.813",
        "lng": "20.463"
    }
}, {
    "city": "Elazığ, Turkey",
    "coords": {
        "lat": "38.668",
        "lng": "39.236"
    }
}, {
    "city": "Belgrade, Serbia",
    "coords": {
        "lat": "44.813",
        "lng": "20.463"
    }
}, {
    "city": "Belgrade, Serbia",
    "coords": {
        "lat": "44.813",
        "lng": "20.463"
    }
}, {
    "city": "Krvava Pec, Slovenia",
    "coords": {
        "lat": "45.864",
        "lng": "14.514"
    }
}, {
    "city": "Ordu, Turkey",
    "coords": {
        "lat": "40.981",
        "lng": "37.905"
    }
}, {
    "city": "Aydin, Turkey",
    "coords": {
        "lat": "37.745",
        "lng": "28.01"
    }
}, {
    "city": "Belgrade, Serbia",
    "coords": {
        "lat": "44.813",
        "lng": "20.463"
    }
}, {
    "city": "Belgrade, Serbia",
    "coords": {
        "lat": "44.813",
        "lng": "20.463"
    }
}, {
    "city": "Bratislava, Slovakia",
    "coords": {
        "lat": "48.17",
        "lng": "17.13"
    }
}, {
    "city": "Sivas, Turkey",
    "coords": {
        "lat": "39.75",
        "lng": "37.018"
    }
}, {
    "city": "Şanlıurfa, Turkey",
    "coords": {
        "lat": "37.157",
        "lng": "38.785"
    }
}, {
    "city": "Ljubljana, Slovenia",
    "coords": {
        "lat": "46.061",
        "lng": "14.517"
    }
}, {
    "city": "Bartin, Turkey",
    "coords": {
        "lat": "41.628",
        "lng": "32.324"
    }
}, {
    "city": "Novo Mesto, Slovenia",
    "coords": {
        "lat": "45.8",
        "lng": "15.172"
    }
}, {
    "city": "Piran, Slovenia",
    "coords": {
        "lat": "45.528",
        "lng": "13.568"
    }
}, {
    "city": "Požarevac, Serbia",
    "coords": {
        "lat": "44.605",
        "lng": "21.185"
    }
}, {
    "city": "Užice, Serbia",
    "coords": {
        "lat": "43.855",
        "lng": "19.853"
    }
}, {
    "city": "Blejska Dobrava, Slovenia",
    "coords": {
        "lat": "46.41",
        "lng": "14.098"
    }
}, {
    "city": "Crnomelj, Slovenia",
    "coords": {
        "lat": "45.569",
        "lng": "15.193"
    }
}, {
    "city": "Subotica, Serbia",
    "coords": {
        "lat": "46.103",
        "lng": "19.632"
    }
}, {
    "city": "Velenje, Slovenia",
    "coords": {
        "lat": "46.36",
        "lng": "15.127"
    }
}, {
    "city": "Milas, Turkey",
    "coords": {
        "lat": "37.319",
        "lng": "27.787"
    }
}, {
    "city": "Elazig, Turkey",
    "coords": {
        "lat": "38.668",
        "lng": "39.236"
    }
}, {
    "city": "Antakya, Turkey",
    "coords": {
        "lat": "36.203",
        "lng": "36.159"
    }
}, {
    "city": "Trabzon, Turkey",
    "coords": {
        "lat": "41.001",
        "lng": "39.717"
    }
}, {
    "city": "Prešov, Slovakia",
    "coords": {
        "lat": "48.992",
        "lng": "21.233"
    }
}, {
    "city": "Cilimli, Turkey",
    "coords": {
        "lat": "40.887",
        "lng": "31.04"
    }
}, {
    "city": "Požarevac, Serbia",
    "coords": {
        "lat": "44.605",
        "lng": "21.185"
    }
}, {
    "city": "Usak, Turkey",
    "coords": {
        "lat": "38.674",
        "lng": "29.422"
    }
}, {
    "city": "Novi Sad, Serbia",
    "coords": {
        "lat": "45.304",
        "lng": "19.827"
    }
}, {
    "city": "Slovenske Konjice, Slovenia",
    "coords": {
        "lat": "46.341",
        "lng": "15.424"
    }
}, {
    "city": "Topoľčany, Slovakia",
    "coords": {
        "lat": "48.553",
        "lng": "18.174"
    }
}, {
    "city": "San Marino, San Marino",
    "coords": {
        "lat": "43.937",
        "lng": "12.441"
    }
}, {
    "city": "Trabzon, Turkey",
    "coords": {
        "lat": "41.001",
        "lng": "39.717"
    }
}, {
    "city": "Jagodina, Serbia",
    "coords": {
        "lat": "43.97",
        "lng": "21.267"
    }
}, {
    "city": "Vršac, Serbia",
    "coords": {
        "lat": "45.123",
        "lng": "21.308"
    }
}, {
    "city": "Denizli, Turkey",
    "coords": {
        "lat": "37.731",
        "lng": "29.141"
    }
}, {
    "city": "Kars, Turkey",
    "coords": {
        "lat": "40.604",
        "lng": "43.103"
    }
}, {
    "city": "Savino Selo, Serbia",
    "coords": {
        "lat": "45.507",
        "lng": "19.523"
    }
}, {
    "city": "Urosevac, Serbia",
    "coords": {
        "lat": "42.37",
        "lng": "21.151"
    }
}, {
    "city": "Bratislava, Slovakia",
    "coords": {
        "lat": "48.17",
        "lng": "17.13"
    }
}, {
    "city": "Vranje, Serbia",
    "coords": {
        "lat": "42.553",
        "lng": "21.906"
    }
}, {
    "city": "Banská Bystrica, Slovakia",
    "coords": {
        "lat": "48.728",
        "lng": "19.158"
    }
}, {
    "city": "Celje, Slovenia",
    "coords": {
        "lat": "46.252",
        "lng": "15.276"
    }
}, {
    "city": "Mugla, Turkey",
    "coords": {
        "lat": "37.216",
        "lng": "28.363"
    }
}, {
    "city": "Usak, Turkey",
    "coords": {
        "lat": "38.674",
        "lng": "29.422"
    }
}, {
    "city": "Trabzon, Turkey",
    "coords": {
        "lat": "41.001",
        "lng": "39.717"
    }
}, {
    "city": "Yozgat, Turkey",
    "coords": {
        "lat": "39.823",
        "lng": "34.807"
    }
}, {
    "city": "Kocaeli, Turkey",
    "coords": {
        "lat": "40.771",
        "lng": "30.025"
    }
}, {
    "city": "Nigde, Turkey",
    "coords": {
        "lat": "37.973",
        "lng": "34.696"
    }
}, {
    "city": "Celje, Slovenia",
    "coords": {
        "lat": "46.252",
        "lng": "15.276"
    }
}, {
    "city": "Kragujevac, Serbia",
    "coords": {
        "lat": "44.029",
        "lng": "20.917"
    }
}, {
    "city": "Banja, Serbia",
    "coords": {
        "lat": "43.168",
        "lng": "20.555"
    }
}, {
    "city": "Beograd, Serbia",
    "coords": {
        "lat": "44.813",
        "lng": "20.463"
    }
}, {
    "city": "Grljan, Serbia",
    "coords": {
        "lat": "43.861",
        "lng": "22.293"
    }
}, {
    "city": "Dob, Slovenia",
    "coords": {
        "lat": "46.152",
        "lng": "14.627"
    }
}, {
    "city": "Maribor, Slovenia",
    "coords": {
        "lat": "46.562",
        "lng": "15.648"
    }
}, {
    "city": "Kragujevac, Serbia",
    "coords": {
        "lat": "44.029",
        "lng": "20.917"
    }
}, {
    "city": "Saray, Turkey",
    "coords": {
        "lat": "41.445",
        "lng": "27.913"
    }
}, {
    "city": "Yesildere, Turkey",
    "coords": {
        "lat": "39.627",
        "lng": "37.854"
    }
}, {
    "city": "Slovenj Gradec, Slovenia",
    "coords": {
        "lat": "46.51",
        "lng": "15.082"
    }
}, {
    "city": "Malatya, Turkey",
    "coords": {
        "lat": "38.349",
        "lng": "38.32"
    }
}, {
    "city": "Kranj, Slovenia",
    "coords": {
        "lat": "46.249",
        "lng": "14.357"
    }
}, {
    "city": "Sombor, Serbia",
    "coords": {
        "lat": "45.778",
        "lng": "19.092"
    }
}, {
    "city": "Apatin, Serbia",
    "coords": {
        "lat": "45.678",
        "lng": "18.992"
    }
}, {
    "city": "Elazig, Turkey",
    "coords": {
        "lat": "38.668",
        "lng": "39.236"
    }
}, {
    "city": "Kladovo, Serbia",
    "coords": {
        "lat": "44.608",
        "lng": "22.613"
    }
}, {
    "city": "Erzurum, Turkey",
    "coords": {
        "lat": "39.906",
        "lng": "41.267"
    }
}, {
    "city": "Ilkadim, Turkey",
    "coords": {
        "lat": "41.295",
        "lng": "36.33"
    }
}, {
    "city": "Žilina, Slovakia",
    "coords": {
        "lat": "49.202",
        "lng": "18.743"
    }
}, {
    "city": "Kranj, Slovenia",
    "coords": {
        "lat": "46.249",
        "lng": "14.357"
    }
}, {
    "city": "Osmaniye, Turkey",
    "coords": {
        "lat": "37.073",
        "lng": "36.249"
    }
}, {
    "city": "Krsko, Slovenia",
    "coords": {
        "lat": "45.943",
        "lng": "15.483"
    }
}, {
    "city": "Celje, Slovenia",
    "coords": {
        "lat": "46.252",
        "lng": "15.276"
    }
}, {
    "city": "Vlasotince, Serbia",
    "coords": {
        "lat": "42.967",
        "lng": "22.118"
    }
}, {
    "city": "Antakya, Turkey",
    "coords": {
        "lat": "36.203",
        "lng": "36.159"
    }
}, {
    "city": "Trabzon, Turkey",
    "coords": {
        "lat": "41.001",
        "lng": "39.717"
    }
}, {
    "city": "Soke, Turkey",
    "coords": {
        "lat": "37.748",
        "lng": "27.399"
    }
}, {
    "city": "Bratislava, Slovakia",
    "coords": {
        "lat": "48.17",
        "lng": "17.13"
    }
}, {
    "city": "Kastamonu, Turkey",
    "coords": {
        "lat": "41.376",
        "lng": "33.782"
    }
}, {
    "city": "Banská Bystrica, Slovakia",
    "coords": {
        "lat": "48.728",
        "lng": "19.158"
    }
}, {
    "city": "Nova Gorica, Slovenia",
    "coords": {
        "lat": "45.954",
        "lng": "13.651"
    }
}, {
    "city": "Novi Sad, Serbia",
    "coords": {
        "lat": "45.304",
        "lng": "19.827"
    }
}, {
    "city": "Banovce nad Bebravou, Slovakia",
    "coords": {
        "lat": "48.721",
        "lng": "18.261"
    }
}, {
    "city": "Giresun, Turkey",
    "coords": {
        "lat": "40.916",
        "lng": "38.382"
    }
}, {
    "city": "Kocasinan, Turkey",
    "coords": {
        "lat": "38.771",
        "lng": "35.573"
    }
}, {
    "city": "Pristina, Serbia",
    "coords": {
        "lat": "42.672",
        "lng": "21.162"
    }
}, {
    "city": "Ljubljana, Slovenia",
    "coords": {
        "lat": "46.061",
        "lng": "14.517"
    }
}, {
    "city": "Elazig, Turkey",
    "coords": {
        "lat": "38.668",
        "lng": "39.236"
    }
}, {
    "city": "Malatya, Turkey",
    "coords": {
        "lat": "38.349",
        "lng": "38.32"
    }
}, {
    "city": "Erzurum, Turkey",
    "coords": {
        "lat": "39.906",
        "lng": "41.267"
    }
}, {
    "city": "Niš, Serbia",
    "coords": {
        "lat": "43.32",
        "lng": "21.892"
    }
}, {
    "city": "Negotin, Serbia",
    "coords": {
        "lat": "44.226",
        "lng": "22.523"
    }
}, {
    "city": "Aydın, Turkey",
    "coords": {
        "lat": "37.745",
        "lng": "28.01"
    }
}, {
    "city": "Mikula, Slovakia",
    "coords": {
        "lat": "48.063",
        "lng": "18.664"
    }
}, {
    "city": "Sanliurfa, Turkey",
    "coords": {
        "lat": "37.157",
        "lng": "38.785"
    }
}, {
    "city": "Niš, Serbia",
    "coords": {
        "lat": "43.32",
        "lng": "21.892"
    }
}, {
    "city": "Priština, Serbia",
    "coords": {
        "lat": "42.672",
        "lng": "21.162"
    }
}, {
    "city": "Ljubljana, Slovenia",
    "coords": {
        "lat": "46.061",
        "lng": "14.517"
    }
}, {
    "city": "Jagodina, Serbia",
    "coords": {
        "lat": "43.97",
        "lng": "21.267"
    }
}, {
    "city": "Fatsa, Turkey",
    "coords": {
        "lat": "41.027",
        "lng": "37.501"
    }
}, {
    "city": "Novi Sad, Serbia",
    "coords": {
        "lat": "45.304",
        "lng": "19.827"
    }
}, {
    "city": "Partizánske, Slovakia",
    "coords": {
        "lat": "48.635",
        "lng": "18.39"
    }
}, {
    "city": "Novi Sad, Serbia",
    "coords": {
        "lat": "45.304",
        "lng": "19.827"
    }
}, {
    "city": "Jagodina, Serbia",
    "coords": {
        "lat": "43.97",
        "lng": "21.267"
    }
}, {
    "city": "Kahramanmaraş, Turkey",
    "coords": {
        "lat": "37.586",
        "lng": "36.928"
    }
}, {
    "city": "Bati, Turkey",
    "coords": {
        "lat": "37.486",
        "lng": "41.434"
    }
}, {
    "city": "Trencin, Slovakia",
    "coords": {
        "lat": "48.893",
        "lng": "18.017"
    }
}, {
    "city": "Niš, Serbia",
    "coords": {
        "lat": "43.32",
        "lng": "21.892"
    }
}, {
    "city": "Partizánske, Slovakia",
    "coords": {
        "lat": "48.635",
        "lng": "18.39"
    }
}, {
    "city": "Belgrade, Serbia",
    "coords": {
        "lat": "44.813",
        "lng": "20.463"
    }
}, {
    "city": "Cuprija, Serbia",
    "coords": {
        "lat": "43.931",
        "lng": "21.381"
    }
}, {
    "city": "Beograd, Serbia",
    "coords": {
        "lat": "44.813",
        "lng": "20.463"
    }
}, {
    "city": "Ptuj, Slovenia",
    "coords": {
        "lat": "46.422",
        "lng": "15.863"
    }
}, {
    "city": "Zonguldak, Turkey",
    "coords": {
        "lat": "41.45",
        "lng": "31.757"
    }
}, {
    "city": "Adapazari, Turkey",
    "coords": {
        "lat": "40.776",
        "lng": "30.39"
    }
}, {
    "city": "Lestane, Serbia",
    "coords": {
        "lat": "44.735",
        "lng": "20.581"
    }
}, {
    "city": "Isparta, Turkey",
    "coords": {
        "lat": "37.75",
        "lng": "30.569"
    }
}, {
    "city": "Maribor, Slovenia",
    "coords": {
        "lat": "46.562",
        "lng": "15.648"
    }
}, {
    "city": "Bodrum, Turkey",
    "coords": {
        "lat": "37.033",
        "lng": "27.419"
    }
}, {
    "city": "Novi Sad, Serbia",
    "coords": {
        "lat": "45.304",
        "lng": "19.827"
    }
}, {
    "city": "Sivas, Turkey",
    "coords": {
        "lat": "39.75",
        "lng": "37.018"
    }
}, {
    "city": "Merzifon, Turkey",
    "coords": {
        "lat": "40.869",
        "lng": "35.451"
    }
}, {
    "city": "Sremska Mitrovica, Serbia",
    "coords": {
        "lat": "44.989",
        "lng": "19.609"
    }
}, {
    "city": "Ljubljana, Slovenia",
    "coords": {
        "lat": "46.061",
        "lng": "14.517"
    }
}, {
    "city": "Kranj, Slovenia",
    "coords": {
        "lat": "46.249",
        "lng": "14.357"
    }
}, {
    "city": "Bratislava, Slovakia",
    "coords": {
        "lat": "48.17",
        "lng": "17.13"
    }
}, {
    "city": "Giresun, Turkey",
    "coords": {
        "lat": "40.916",
        "lng": "38.382"
    }
}, {
    "city": "Samsun, Turkey",
    "coords": {
        "lat": "41.282",
        "lng": "36.338"
    }
}, {
    "city": "Belgrade, Serbia",
    "coords": {
        "lat": "44.813",
        "lng": "20.463"
    }
}, {
    "city": "Afyonkarahisar, Turkey",
    "coords": {
        "lat": "38.758",
        "lng": "30.538"
    }
}, {
    "city": "Gornji Milanovac, Serbia",
    "coords": {
        "lat": "44.02",
        "lng": "20.446"
    }
}, {
    "city": "Persembe, Turkey",
    "coords": {
        "lat": "41.067",
        "lng": "37.772"
    }
}, {
    "city": "Polzela, Slovenia",
    "coords": {
        "lat": "46.304",
        "lng": "15.085"
    }
}, {
    "city": "Murska Sobota, Slovenia",
    "coords": {
        "lat": "46.666",
        "lng": "16.177"
    }
}, {
    "city": "Isparta, Turkey",
    "coords": {
        "lat": "37.75",
        "lng": "30.569"
    }
}, {
    "city": "Erzurum, Turkey",
    "coords": {
        "lat": "39.906",
        "lng": "41.267"
    }
}, {
    "city": "Bandirma, Turkey",
    "coords": {
        "lat": "40.346",
        "lng": "28.003"
    }
}, {
    "city": "Ordu, Turkey",
    "coords": {
        "lat": "40.981",
        "lng": "37.905"
    }
}, {
    "city": "Tokat, Turkey",
    "coords": {
        "lat": "40.314",
        "lng": "36.545"
    }
}, {
    "city": "Ordu, Turkey",
    "coords": {
        "lat": "40.981",
        "lng": "37.905"
    }
}, {
    "city": "Ljubljana, Slovenia",
    "coords": {
        "lat": "46.061",
        "lng": "14.517"
    }
}, {
    "city": "Krsko, Slovenia",
    "coords": {
        "lat": "45.943",
        "lng": "15.483"
    }
}, {
    "city": "Radlje ob Dravi, Slovenia",
    "coords": {
        "lat": "46.585",
        "lng": "15.257"
    }
}, {
    "city": "Banská Bystrica, Banska Bystrica, Slovakia",
    "coords": {
        "lat": "48.728",
        "lng": "19.158"
    }
}, {
    "city": "Klina, Serbia",
    "coords": {
        "lat": "42.62",
        "lng": "20.575"
    }
}, {
    "city": "Lucani, Serbia",
    "coords": {
        "lat": "43.859",
        "lng": "20.142"
    }
}, {
    "city": "Heraclea, Turkey",
    "coords": {
        "lat": "37.514",
        "lng": "34.041"
    }
}, {
    "city": "Tekirdag, Turkey",
    "coords": {
        "lat": "40.978",
        "lng": "27.519"
    }
}, {
    "city": "Aleksandrovac, Serbia",
    "coords": {
        "lat": "43.458",
        "lng": "21.065"
    }
}, {
    "city": "Duzce, Turkey",
    "coords": {
        "lat": "40.841",
        "lng": "31.151"
    }
}, {
    "city": "Podujevo, Serbia",
    "coords": {
        "lat": "42.906",
        "lng": "21.197"
    }
}, {
    "city": "Samsun, Turkey",
    "coords": {
        "lat": "41.282",
        "lng": "36.338"
    }
}, {
    "city": "Afyonkarahisar, Turkey",
    "coords": {
        "lat": "38.758",
        "lng": "30.538"
    }
}, {
    "city": "Yeditepe, Turkey",
    "coords": {
        "lat": "35.966",
        "lng": "36.014"
    }
}, {
    "city": "Novi Beograd, Serbia",
    "coords": {
        "lat": "44.819",
        "lng": "20.351"
    }
}, {
    "city": "Kahramanmaras, Turkey",
    "coords": {
        "lat": "37.586",
        "lng": "36.928"
    }
}, {
    "city": "Çerkezköy, Turkey",
    "coords": {
        "lat": "41.287",
        "lng": "27.999"
    }
}, {
    "city": "Zrenjanin, Serbia",
    "coords": {
        "lat": "45.391",
        "lng": "20.392"
    }
}, {
    "city": "Pristina, Serbia",
    "coords": {
        "lat": "42.672",
        "lng": "21.162"
    }
}, {
    "city": "İzmit, Turkey",
    "coords": {
        "lat": "40.771",
        "lng": "30.025"
    }
}, {
    "city": "Svrljig, Serbia",
    "coords": {
        "lat": "43.41",
        "lng": "22.114"
    }
}, {
    "city": "Mala, Slovakia",
    "coords": {
        "lat": "48.683",
        "lng": "22.017"
    }
}, {
    "city": "Indjija, Serbia",
    "coords": {
        "lat": "45.049",
        "lng": "20.082"
    }
}, {
    "city": "Branicevo, Serbia",
    "coords": {
        "lat": "44.704",
        "lng": "21.538"
    }
}, {
    "city": "Pirot, Serbia",
    "coords": {
        "lat": "43.159",
        "lng": "22.575"
    }
}, {
    "city": "Trbovlje, Slovenia",
    "coords": {
        "lat": "46.155",
        "lng": "15.062"
    }
}, {
    "city": "Afyonkarahisar, Turkey",
    "coords": {
        "lat": "38.758",
        "lng": "30.538"
    }
}, {
    "city": "Niš, Serbia",
    "coords": {
        "lat": "43.32",
        "lng": "21.892"
    }
}, {
    "city": "Ljubljana, Slovenia",
    "coords": {
        "lat": "46.061",
        "lng": "14.517"
    }
}, {
    "city": "Kucevo, Serbia",
    "coords": {
        "lat": "44.477",
        "lng": "21.669"
    }
}, {
    "city": "Malatya, Turkey",
    "coords": {
        "lat": "38.349",
        "lng": "38.32"
    }
}, {
    "city": "Suadiye, Turkey",
    "coords": {
        "lat": "40.707",
        "lng": "30.054"
    }
}, {
    "city": "Zonguldak, Turkey",
    "coords": {
        "lat": "41.45",
        "lng": "31.757"
    }
}, {
    "city": "Nevsehir, Turkey",
    "coords": {
        "lat": "38.623",
        "lng": "34.715"
    }
}, {
    "city": "Batman, Turkey",
    "coords": {
        "lat": "37.882",
        "lng": "41.129"
    }
}, {
    "city": "Belgrade, Serbia",
    "coords": {
        "lat": "44.813",
        "lng": "20.463"
    }
}, {
    "city": "Ljubljana, Slovenia",
    "coords": {
        "lat": "46.061",
        "lng": "14.517"
    }
}, {
    "city": "Suva Reka, Serbia",
    "coords": {
        "lat": "42.357",
        "lng": "20.823"
    }
}, {
    "city": "Tekirdağ, Turkey",
    "coords": {
        "lat": "40.978",
        "lng": "27.519"
    }
}, {
    "city": "Kraljevo, Serbia",
    "coords": {
        "lat": "43.734",
        "lng": "20.695"
    }
}, {
    "city": "Godacica, Serbia",
    "coords": {
        "lat": "43.783",
        "lng": "20.856"
    }
}, {
    "city": "Novo mesto, Slovenia",
    "coords": {
        "lat": "45.8",
        "lng": "15.172"
    }
}, {
    "city": "Cesme, Turkey",
    "coords": {
        "lat": "38.324",
        "lng": "26.309"
    }
}, {
    "city": "Giresun, Turkey",
    "coords": {
        "lat": "40.916",
        "lng": "38.382"
    }
}, {
    "city": "Boraceva, Slovenia",
    "coords": {
        "lat": "46.642",
        "lng": "16.023"
    }
}, {
    "city": "Corum, Turkey",
    "coords": {
        "lat": "40.55",
        "lng": "34.955"
    }
}, {
    "city": "Padina, Serbia",
    "coords": {
        "lat": "45.118",
        "lng": "20.73"
    }
}, {
    "city": "Sivas, Turkey",
    "coords": {
        "lat": "39.75",
        "lng": "37.018"
    }
}, {
    "city": "Subotica, Serbia",
    "coords": {
        "lat": "46.103",
        "lng": "19.632"
    }
}, {
    "city": "Osmaniye, Turkey",
    "coords": {
        "lat": "37.073",
        "lng": "36.249"
    }
}, {
    "city": "Lozovik, Serbia",
    "coords": {
        "lat": "44.468",
        "lng": "21.101"
    }
}, {
    "city": "Priština, Serbia",
    "coords": {
        "lat": "42.672",
        "lng": "21.162"
    }
}, {
    "city": "Osman, Turkey",
    "coords": {
        "lat": "40.072",
        "lng": "30.976"
    }
}, {
    "city": "Jesenice, Slovenia",
    "coords": {
        "lat": "46.431",
        "lng": "14.056"
    }
}, {
    "city": "Giresun, Turkey",
    "coords": {
        "lat": "40.916",
        "lng": "38.382"
    }
}, {
    "city": "Gonen, Turkey",
    "coords": {
        "lat": "40.103",
        "lng": "27.658"
    }
}, {
    "city": "Škofja Loka, Slovenia",
    "coords": {
        "lat": "46.171",
        "lng": "14.292"
    }
}, {
    "city": "Sivas, Turkey",
    "coords": {
        "lat": "39.75",
        "lng": "37.018"
    }
}, {
    "city": "Belgrade, Serbia",
    "coords": {
        "lat": "44.813",
        "lng": "20.463"
    }
}, {
    "city": "Trabzon, Turkey",
    "coords": {
        "lat": "41.001",
        "lng": "39.717"
    }
}, {
    "city": "Vranje, Serbia",
    "coords": {
        "lat": "42.553",
        "lng": "21.906"
    }
}, {
    "city": "Ljubljana, Slovenia",
    "coords": {
        "lat": "46.061",
        "lng": "14.517"
    }
}, {
    "city": "Bratislava, Slovakia",
    "coords": {
        "lat": "48.17",
        "lng": "17.13"
    }
}, {
    "city": "Beograd, Serbia",
    "coords": {
        "lat": "44.813",
        "lng": "20.463"
    }
}, {
    "city": "Novi Sad, Serbia",
    "coords": {
        "lat": "45.304",
        "lng": "19.827"
    }
}, {
    "city": "Koper, Slovenia",
    "coords": {
        "lat": "45.548",
        "lng": "13.726"
    }
}, {
    "city": "Ljubljana, Slovenia",
    "coords": {
        "lat": "46.061",
        "lng": "14.517"
    }
}, {
    "city": "Bratislava, Slovakia",
    "coords": {
        "lat": "48.17",
        "lng": "17.13"
    }
}, {
    "city": "Tokat, Turkey",
    "coords": {
        "lat": "40.314",
        "lng": "36.545"
    }
}, {
    "city": "Bled, Slovenia",
    "coords": {
        "lat": "46.371",
        "lng": "14.107"
    }
}, {
    "city": "Balikesir, Turkey",
    "coords": {
        "lat": "39.645",
        "lng": "27.885"
    }
}, {
    "city": "Hurriyet, Turkey",
    "coords": {
        "lat": "36.31",
        "lng": "36.507"
    }
}, {
    "city": "Koper, Slovenia",
    "coords": {
        "lat": "45.548",
        "lng": "13.726"
    }
}, {
    "city": "Kragujevac, Serbia",
    "coords": {
        "lat": "44.029",
        "lng": "20.917"
    }
}, {
    "city": "İzmit, Turkey",
    "coords": {
        "lat": "40.771",
        "lng": "30.025"
    }
}, {
    "city": "Bor, Serbia",
    "coords": {
        "lat": "44.068",
        "lng": "22.093"
    }
}, {
    "city": "Kocaeli, Turkey",
    "coords": {
        "lat": "40.771",
        "lng": "30.025"
    }
}, {
    "city": "Koper, Slovenia",
    "coords": {
        "lat": "45.548",
        "lng": "13.726"
    }
}, {
    "city": "Kesan, Turkey",
    "coords": {
        "lat": "40.851",
        "lng": "26.629"
    }
}, {
    "city": "Nevsehir, Turkey",
    "coords": {
        "lat": "38.623",
        "lng": "34.715"
    }
}, {
    "city": "Becej, Serbia",
    "coords": {
        "lat": "45.627",
        "lng": "20.024"
    }
}, {
    "city": "İzmit, Turkey",
    "coords": {
        "lat": "40.771",
        "lng": "30.025"
    }
}, {
    "city": "Koper, Slovenia",
    "coords": {
        "lat": "45.548",
        "lng": "13.726"
    }
}, {
    "city": "Samsun, Turkey",
    "coords": {
        "lat": "41.282",
        "lng": "36.338"
    }
}, {
    "city": "Yozgat, Turkey",
    "coords": {
        "lat": "39.823",
        "lng": "34.807"
    }
}, {
    "city": "Bodrum, Turkey",
    "coords": {
        "lat": "37.033",
        "lng": "27.419"
    }
}, {
    "city": "Srbobran, Serbia",
    "coords": {
        "lat": "45.552",
        "lng": "19.793"
    }
}, {
    "city": "Murska Sobota, Slovenia",
    "coords": {
        "lat": "46.666",
        "lng": "16.177"
    }
}, {
    "city": "Pristina, Serbia",
    "coords": {
        "lat": "42.672",
        "lng": "21.162"
    }
}, {
    "city": "Kocaeli, Turkey",
    "coords": {
        "lat": "40.771",
        "lng": "30.025"
    }
}, {
    "city": "Kars, Turkey",
    "coords": {
        "lat": "40.604",
        "lng": "43.103"
    }
}, {
    "city": "Bitvrda, Serbia",
    "coords": {
        "lat": "42.696",
        "lng": "22.269"
    }
}, {
    "city": "Bratislava , Slovakia",
    "coords": {
        "lat": "48.17",
        "lng": "17.13"
    }
}, {
    "city": "Idrija, Slovenia",
    "coords": {
        "lat": "46.001",
        "lng": "14.019"
    }
}, {
    "city": "Novi Sad, Serbia",
    "coords": {
        "lat": "45.304",
        "lng": "19.827"
    }
}, {
    "city": "Bajina Basta, Serbia",
    "coords": {
        "lat": "43.975",
        "lng": "19.555"
    }
}, {
    "city": "Kirklareli, Turkey",
    "coords": {
        "lat": "41.735",
        "lng": "27.233"
    }
}, {
    "city": "Belgrade, Serbia",
    "coords": {
        "lat": "44.813",
        "lng": "20.463"
    }
}, {
    "city": "Malatya, Turkey",
    "coords": {
        "lat": "38.349",
        "lng": "38.32"
    }
}, {
    "city": "Bardejov, Slovakia",
    "coords": {
        "lat": "49.292",
        "lng": "21.265"
    }
}, {
    "city": "Valjevo, Serbia",
    "coords": {
        "lat": "44.268",
        "lng": "19.896"
    }
}, {
    "city": "Bratislava, Slovakia",
    "coords": {
        "lat": "48.17",
        "lng": "17.13"
    }
}, {
    "city": "Samsun, Turkey",
    "coords": {
        "lat": "41.282",
        "lng": "36.338"
    }
}, {
    "city": "Kozan, Turkey",
    "coords": {
        "lat": "37.456",
        "lng": "35.808"
    }
}, {
    "city": "kosice, Slovakia",
    "coords": {
        "lat": "48.707",
        "lng": "21.258"
    }
}, {
    "city": "Niš, Serbia",
    "coords": {
        "lat": "43.32",
        "lng": "21.892"
    }
}, {
    "city": "Vojvodinci, Serbia",
    "coords": {
        "lat": "45.016",
        "lng": "21.348"
    }
}, {
    "city": "Marmaris, Turkey",
    "coords": {
        "lat": "36.848",
        "lng": "28.25"
    }
}, {
    "city": "Bolu, Turkey",
    "coords": {
        "lat": "40.731",
        "lng": "31.599"
    }
}, {
    "city": "Stara Pazova, Serbia",
    "coords": {
        "lat": "44.987",
        "lng": "20.185"
    }
}, {
    "city": "Belgrade, Serbia",
    "coords": {
        "lat": "44.813",
        "lng": "20.463"
    }
}, {
    "city": "Alanya, Turkey",
    "coords": {
        "lat": "36.549",
        "lng": "32.028"
    }
}, {
    "city": "Velenje, Slovenia",
    "coords": {
        "lat": "46.36",
        "lng": "15.127"
    }
}, {
    "city": "Çorum, Turkey",
    "coords": {
        "lat": "40.55",
        "lng": "34.955"
    }
}, {
    "city": "Osmaniye, Turkey",
    "coords": {
        "lat": "37.073",
        "lng": "36.249"
    }
}, {
    "city": "Samsun , Turkey",
    "coords": {
        "lat": "41.282",
        "lng": "36.338"
    }
}, {
    "city": "UB, Serbia",
    "coords": {
        "lat": "44.454",
        "lng": "20.065"
    }
}, {
    "city": "Kruševac, Serbia",
    "coords": {
        "lat": "43.583",
        "lng": "21.333"
    }
}, {
    "city": "Valjevo, Serbia",
    "coords": {
        "lat": "44.268",
        "lng": "19.896"
    }
}, {
    "city": "Belgrade, Serbia",
    "coords": {
        "lat": "44.813",
        "lng": "20.463"
    }
}, {
    "city": "Sivas, Turkey",
    "coords": {
        "lat": "39.75",
        "lng": "37.018"
    }
}, {
    "city": "Nova Gorica, Slovenia",
    "coords": {
        "lat": "45.954",
        "lng": "13.651"
    }
}, {
    "city": "Kragujevac, Serbia",
    "coords": {
        "lat": "44.029",
        "lng": "20.917"
    }
}, {
    "city": "Milas, Turkey",
    "coords": {
        "lat": "37.319",
        "lng": "27.787"
    }
}, {
    "city": "Nitra, Slovakia",
    "coords": {
        "lat": "48.314",
        "lng": "18.106"
    }
}, {
    "city": "Tekirdag, Turkey",
    "coords": {
        "lat": "40.978",
        "lng": "27.519"
    }
}, {
    "city": "Batman, Turkey",
    "coords": {
        "lat": "37.882",
        "lng": "41.129"
    }
}, {
    "city": "Erzincan, Turkey",
    "coords": {
        "lat": "39.748",
        "lng": "39.482"
    }
}, {
    "city": "Maribor, Slovenia",
    "coords": {
        "lat": "46.562",
        "lng": "15.648"
    }
}, {
    "city": "Civril, Turkey",
    "coords": {
        "lat": "38.29",
        "lng": "29.733"
    }
}, {
    "city": "Bergama, Turkey",
    "coords": {
        "lat": "39.103",
        "lng": "27.186"
    }
}, {
    "city": "Ljubljana, Slovenia",
    "coords": {
        "lat": "46.061",
        "lng": "14.517"
    }
}, {
    "city": "Novi Sad, Serbia",
    "coords": {
        "lat": "45.304",
        "lng": "19.827"
    }
}, {
    "city": "Sapanca, Turkey",
    "coords": {
        "lat": "40.683",
        "lng": "30.241"
    }
}, {
    "city": "Subotica, Serbia",
    "coords": {
        "lat": "46.103",
        "lng": "19.632"
    }
}, {
    "city": "Belgrade, Serbia",
    "coords": {
        "lat": "44.813",
        "lng": "20.463"
    }
}, {
    "city": "Belgrade, Serbia",
    "coords": {
        "lat": "44.813",
        "lng": "20.463"
    }
}, {
    "city": "Belgrade, Serbia",
    "coords": {
        "lat": "44.813",
        "lng": "20.463"
    }
}, {
    "city": "Batman, Turkey",
    "coords": {
        "lat": "37.882",
        "lng": "41.129"
    }
}, {
    "city": "Isparta, Turkey",
    "coords": {
        "lat": "37.75",
        "lng": "30.569"
    }
}, {
    "city": "Ljubljana, Slovenia",
    "coords": {
        "lat": "46.061",
        "lng": "14.517"
    }
}, {
    "city": "Belgrade, Serbia",
    "coords": {
        "lat": "44.813",
        "lng": "20.463"
    }
}, {
    "city": "Belgrade, Serbia",
    "coords": {
        "lat": "44.813",
        "lng": "20.463"
    }
}, {
    "city": "Podujevo, Serbia",
    "coords": {
        "lat": "42.906",
        "lng": "21.197"
    }
}, {
    "city": "Eroglu, Turkey",
    "coords": {
        "lat": "38.95",
        "lng": "27.768"
    }
}, {
    "city": "Belgrade, Serbia",
    "coords": {
        "lat": "44.813",
        "lng": "20.463"
    }
}, {
    "city": "Murska Sobota, Slovenia",
    "coords": {
        "lat": "46.666",
        "lng": "16.177"
    }
}, {
    "city": "Erzincan, Turkey",
    "coords": {
        "lat": "39.748",
        "lng": "39.482"
    }
}, {
    "city": "Mosna, Serbia",
    "coords": {
        "lat": "44.428",
        "lng": "22.174"
    }
}, {
    "city": "Belgrade, Serbia",
    "coords": {
        "lat": "44.813",
        "lng": "20.463"
    }
}, {
    "city": "Edirne, Turkey",
    "coords": {
        "lat": "41.677",
        "lng": "26.555"
    }
}, {
    "city": "Srednjevo, Serbia",
    "coords": {
        "lat": "44.646",
        "lng": "21.489"
    }
}, {
    "city": "Tolmin, Slovenia",
    "coords": {
        "lat": "46.187",
        "lng": "13.73"
    }
}, {
    "city": "Kragujevac, Serbia",
    "coords": {
        "lat": "44.029",
        "lng": "20.917"
    }
}, {
    "city": "Aksaray, Turkey",
    "coords": {
        "lat": "38.368",
        "lng": "34.031"
    }
}, {
    "city": "Maribor, Slovenia",
    "coords": {
        "lat": "46.562",
        "lng": "15.648"
    }
}, {
    "city": "Bayburt, Turkey",
    "coords": {
        "lat": "40.257",
        "lng": "40.218"
    }
}, {
    "city": "Isparta, Turkey",
    "coords": {
        "lat": "37.75",
        "lng": "30.569"
    }
}, {
    "city": "Kruševac, Serbia",
    "coords": {
        "lat": "43.583",
        "lng": "21.333"
    }
}, {
    "city": "Belgrade, Serbia",
    "coords": {
        "lat": "44.813",
        "lng": "20.463"
    }
}, {
    "city": "Niš, Serbia",
    "coords": {
        "lat": "43.32",
        "lng": "21.892"
    }
}, {
    "city": "Liptovsky Mikulas, Slovakia",
    "coords": {
        "lat": "49.086",
        "lng": "19.606"
    }
}, {
    "city": "Žilina, Slovakia",
    "coords": {
        "lat": "49.202",
        "lng": "18.743"
    }
}, {
    "city": "Amasya, Turkey",
    "coords": {
        "lat": "40.652",
        "lng": "35.823"
    }
}, {
    "city": "Glogovac, Serbia",
    "coords": {
        "lat": "44.86",
        "lng": "19.417"
    }
}, {
    "city": "San Marino, San Marino",
    "coords": {
        "lat": "43.937",
        "lng": "12.441"
    }
}, {
    "city": "Ljubljana, Slovenia",
    "coords": {
        "lat": "46.061",
        "lng": "14.517"
    }
}, {
    "city": "Antakya, Turkey",
    "coords": {
        "lat": "36.203",
        "lng": "36.159"
    }
}, {
    "city": "Prešov, Slovakia",
    "coords": {
        "lat": "48.992",
        "lng": "21.233"
    }
}, {
    "city": "Bojnice, Slovakia",
    "coords": {
        "lat": "48.776",
        "lng": "18.588"
    }
}, {
    "city": "Bratislava, Slovakia",
    "coords": {
        "lat": "48.17",
        "lng": "17.13"
    }
}, {
    "city": "Belgrade, Serbia",
    "coords": {
        "lat": "44.813",
        "lng": "20.463"
    }
}, {
    "city": "Sanliurfa, Turkey",
    "coords": {
        "lat": "37.157",
        "lng": "38.785"
    }
}, {
    "city": "Bratislava, Slovakia",
    "coords": {
        "lat": "48.17",
        "lng": "17.13"
    }
}, {
    "city": "Sombor, Serbia",
    "coords": {
        "lat": "45.778",
        "lng": "19.092"
    }
}, {
    "city": "Bratislava, Slovakia",
    "coords": {
        "lat": "48.17",
        "lng": "17.13"
    }
}, {
    "city": "Cagdas, Turkey",
    "coords": {
        "lat": "37.538",
        "lng": "39.516"
    }
}, {
    "city": "Aksaray, Turkey",
    "coords": {
        "lat": "38.368",
        "lng": "34.031"
    }
}, {
    "city": "Belgrade, Serbia",
    "coords": {
        "lat": "44.813",
        "lng": "20.463"
    }
}, {
    "city": "Ljubljana, Slovenia",
    "coords": {
        "lat": "46.061",
        "lng": "14.517"
    }
}, {
    "city": "Majur, Serbia",
    "coords": {
        "lat": "44.772",
        "lng": "19.645"
    }
}, {
    "city": "Bratislava, Slovakia",
    "coords": {
        "lat": "48.17",
        "lng": "17.13"
    }
}, {
    "city": "Gornji Milanovac, Serbia",
    "coords": {
        "lat": "44.02",
        "lng": "20.446"
    }
}, {
    "city": "Nevsehir, Turkey",
    "coords": {
        "lat": "38.623",
        "lng": "34.715"
    }
}, {
    "city": "Giresun, Turkey",
    "coords": {
        "lat": "40.916",
        "lng": "38.382"
    }
}, {
    "city": "Kocaeli, Turkey",
    "coords": {
        "lat": "40.771",
        "lng": "30.025"
    }
}, {
    "city": "Erzurum, Turkey",
    "coords": {
        "lat": "39.906",
        "lng": "41.267"
    }
}, {
    "city": "Kahramanmaraş, Turkey",
    "coords": {
        "lat": "37.586",
        "lng": "36.928"
    }
}, {
    "city": "Zrenjanin, Serbia",
    "coords": {
        "lat": "45.391",
        "lng": "20.392"
    }
}, {
    "city": "Belgrade, Serbia",
    "coords": {
        "lat": "44.813",
        "lng": "20.463"
    }
}, {
    "city": "Požarevac, Serbia",
    "coords": {
        "lat": "44.605",
        "lng": "21.185"
    }
}, {
    "city": "Belgrade, Serbia",
    "coords": {
        "lat": "44.813",
        "lng": "20.463"
    }
}, {
    "city": "Tokat, Turkey",
    "coords": {
        "lat": "40.314",
        "lng": "36.545"
    }
}, {
    "city": "Aydın, Turkey",
    "coords": {
        "lat": "37.745",
        "lng": "28.01"
    }
}, {
    "city": "Belgrade, Serbia",
    "coords": {
        "lat": "44.813",
        "lng": "20.463"
    }
}, {
    "city": "Subotica, Serbia",
    "coords": {
        "lat": "46.103",
        "lng": "19.632"
    }
}, {
    "city": "Erzurum, Turkey",
    "coords": {
        "lat": "39.906",
        "lng": "41.267"
    }
}, {
    "city": "Belgrade, Serbia",
    "coords": {
        "lat": "44.813",
        "lng": "20.463"
    }
}, {
    "city": "Novi Sad, Serbia",
    "coords": {
        "lat": "45.304",
        "lng": "19.827"
    }
}, {
    "city": "İzmit, Turkey",
    "coords": {
        "lat": "40.771",
        "lng": "30.025"
    }
}, {
    "city": "Bratislava, Slovakia",
    "coords": {
        "lat": "48.17",
        "lng": "17.13"
    }
}, {
    "city": "Ljubljana, Slovenia",
    "coords": {
        "lat": "46.061",
        "lng": "14.517"
    }
}, {
    "city": "Malatya, Turkey",
    "coords": {
        "lat": "38.349",
        "lng": "38.32"
    }
}, {
    "city": "Tokat, Turkey",
    "coords": {
        "lat": "40.314",
        "lng": "36.545"
    }
}, {
    "city": "Nigde, Turkey",
    "coords": {
        "lat": "37.973",
        "lng": "34.696"
    }
}, {
    "city": "Kruševac, Serbia",
    "coords": {
        "lat": "43.583",
        "lng": "21.333"
    }
}, {
    "city": "Belgrade, Serbia",
    "coords": {
        "lat": "44.813",
        "lng": "20.463"
    }
}, {
    "city": "Erzincan, Turkey",
    "coords": {
        "lat": "39.748",
        "lng": "39.482"
    }
}, {
    "city": "Belgrade, Serbia",
    "coords": {
        "lat": "44.813",
        "lng": "20.463"
    }
}, {
    "city": "Novi Sad, Serbia",
    "coords": {
        "lat": "45.304",
        "lng": "19.827"
    }
}, {
    "city": "Kahramanmaras, Turkey",
    "coords": {
        "lat": "37.586",
        "lng": "36.928"
    }
}, {
    "city": "Novi Sad, Serbia",
    "coords": {
        "lat": "45.304",
        "lng": "19.827"
    }
}, {
    "city": "Novi Sad, Serbia",
    "coords": {
        "lat": "45.304",
        "lng": "19.827"
    }
}, {
    "city": "Zonguldak, Turkey",
    "coords": {
        "lat": "41.45",
        "lng": "31.757"
    }
}, {
    "city": "Afyonkarahisar, Turkey",
    "coords": {
        "lat": "38.758",
        "lng": "30.538"
    }
}, {
    "city": "Edirne, Turkey",
    "coords": {
        "lat": "41.677",
        "lng": "26.555"
    }
}, {
    "city": "Belgrade, Serbia",
    "coords": {
        "lat": "44.813",
        "lng": "20.463"
    }
}, {
    "city": "Niš, Serbia",
    "coords": {
        "lat": "43.32",
        "lng": "21.892"
    }
}, {
    "city": "Belgrade, Serbia",
    "coords": {
        "lat": "44.813",
        "lng": "20.463"
    }
}, {
    "city": "Belgrade, Serbia",
    "coords": {
        "lat": "44.813",
        "lng": "20.463"
    }
}, {
    "city": "Glogovac, Serbia",
    "coords": {
        "lat": "44.86",
        "lng": "19.417"
    }
}, {
    "city": "Kranj, Slovenia",
    "coords": {
        "lat": "46.249",
        "lng": "14.357"
    }
}, {
    "city": "Giresun, Turkey",
    "coords": {
        "lat": "40.916",
        "lng": "38.382"
    }
}, {
    "city": "Vrnjacka Banja, Serbia",
    "coords": {
        "lat": "43.619",
        "lng": "20.888"
    }
}, {
    "city": "Belgrade, Serbia",
    "coords": {
        "lat": "44.813",
        "lng": "20.463"
    }
}, {
    "city": "Nevsehir, Turkey",
    "coords": {
        "lat": "38.623",
        "lng": "34.715"
    }
}, {
    "city": "Sanliurfa, Turkey",
    "coords": {
        "lat": "37.157",
        "lng": "38.785"
    }
}, {
    "city": "Elazığ, Turkey",
    "coords": {
        "lat": "38.668",
        "lng": "39.236"
    }
}, {
    "city": "Sanliurfa, Turkey",
    "coords": {
        "lat": "37.157",
        "lng": "38.785"
    }
}, {
    "city": "Eregli, Turkey",
    "coords": {
        "lat": "37.514",
        "lng": "34.041"
    }
}, {
    "city": "Lazarevac, Serbia",
    "coords": {
        "lat": "44.388",
        "lng": "20.272"
    }
}, {
    "city": "Nazilli, Turkey",
    "coords": {
        "lat": "37.911",
        "lng": "28.324"
    }
}, {
    "city": "Leskovac, Serbia",
    "coords": {
        "lat": "42.999",
        "lng": "21.923"
    }
}, {
    "city": "Lazarevac, Serbia",
    "coords": {
        "lat": "44.388",
        "lng": "20.272"
    }
}, {
    "city": "Can, Turkey",
    "coords": {
        "lat": "40.031",
        "lng": "27.045"
    }
}, {
    "city": "Ljubljana, Ljubljana, Slovenia",
    "coords": {
        "lat": "46.061",
        "lng": "14.517"
    }
}, {
    "city": "Novi Sad, Vojvodina, Serbia",
    "coords": {
        "lat": "45.304",
        "lng": "19.827"
    }
}, {
    "city": "Bilgi, Turkey",
    "coords": {
        "lat": "38.096",
        "lng": "43.262"
    }
}, {
    "city": "Hatay, Turkey",
    "coords": {
        "lat": "36.426",
        "lng": "36.254"
    }
}, {
    "city": "Dragas, Serbia",
    "coords": {
        "lat": "42.898",
        "lng": "20.366"
    }
}, {
    "city": "Zagorje ob Savi, Slovenia",
    "coords": {
        "lat": "46.134",
        "lng": "14.994"
    }
}, {
    "city": "Malatya, Turkey",
    "coords": {
        "lat": "38.349",
        "lng": "38.32"
    }
}, {
    "city": "Pojate, Serbia",
    "coords": {
        "lat": "43.902",
        "lng": "21.242"
    }
}, {
    "city": "Karsiyaka, Turkey",
    "coords": {
        "lat": "38.479",
        "lng": "27.11"
    }
}, {
    "city": "Malatya, Turkey",
    "coords": {
        "lat": "38.349",
        "lng": "38.32"
    }
}, {
    "city": "Ljubljana, Slovenia",
    "coords": {
        "lat": "46.061",
        "lng": "14.517"
    }
}, {
    "city": "Malatya, Turkey",
    "coords": {
        "lat": "38.349",
        "lng": "38.32"
    }
}, {
    "city": "Kahramanmaraş, Turkey",
    "coords": {
        "lat": "37.586",
        "lng": "36.928"
    }
}, {
    "city": "Mugla, Turkey",
    "coords": {
        "lat": "37.216",
        "lng": "28.363"
    }
}, {
    "city": "Gulijan, Serbia",
    "coords": {
        "lat": "43.362",
        "lng": "22.252"
    }
}, {
    "city": "Banská Bystrica, Slovakia",
    "coords": {
        "lat": "48.728",
        "lng": "19.158"
    }
}, {
    "city": "Skalica, Slovakia",
    "coords": {
        "lat": "48.836",
        "lng": "17.228"
    }
}, {
    "city": "Obrenovac, Serbia",
    "coords": {
        "lat": "44.665",
        "lng": "20.192"
    }
}, {
    "city": "Samsun, Turkey",
    "coords": {
        "lat": "41.282",
        "lng": "36.338"
    }
}, {
    "city": "Yozgat, Turkey",
    "coords": {
        "lat": "39.823",
        "lng": "34.807"
    }
}, {
    "city": "Korfez, Turkey",
    "coords": {
        "lat": "40.772",
        "lng": "29.746"
    }
}, {
    "city": "Kragujevac, Serbia",
    "coords": {
        "lat": "44.029",
        "lng": "20.917"
    }
}, {
    "city": "Kruševac, Serbia",
    "coords": {
        "lat": "43.583",
        "lng": "21.333"
    }
}, {
    "city": "Zitiste, Serbia",
    "coords": {
        "lat": "45.479",
        "lng": "20.551"
    }
}, {
    "city": "Çanakkale, Turkey",
    "coords": {
        "lat": "40.151",
        "lng": "26.402"
    }
}, {
    "city": "Kragujevac, Serbia",
    "coords": {
        "lat": "44.029",
        "lng": "20.917"
    }
}, {
    "city": "Malatya, Turkey",
    "coords": {
        "lat": "38.349",
        "lng": "38.32"
    }
}, {
    "city": "Trencín, Slovakia",
    "coords": {
        "lat": "48.893",
        "lng": "18.017"
    }
}, {
    "city": "Ljutomer, Slovenia",
    "coords": {
        "lat": "46.514",
        "lng": "16.209"
    }
}, {
    "city": "Ovcare, Serbia",
    "coords": {
        "lat": "44.889",
        "lng": "20.538"
    }
}, {
    "city": "Secanj, Serbia",
    "coords": {
        "lat": "45.368",
        "lng": "20.765"
    }
}, {
    "city": "Tosya, Turkey",
    "coords": {
        "lat": "41.02",
        "lng": "34.037"
    }
}, {
    "city": "Manavgat, Turkey",
    "coords": {
        "lat": "36.788",
        "lng": "31.451"
    }
}, {
    "city": "Poprad, Slovakia",
    "coords": {
        "lat": "49.06",
        "lng": "20.315"
    }
}, {
    "city": "Despotovac, Serbia",
    "coords": {
        "lat": "44.095",
        "lng": "21.444"
    }
}, {
    "city": "Gelibolu, Turkey",
    "coords": {
        "lat": "40.408",
        "lng": "26.673"
    }
}, {
    "city": "Sid, Serbia",
    "coords": {
        "lat": "45.12",
        "lng": "19.218"
    }
}, {
    "city": "Adiyaman, Turkey",
    "coords": {
        "lat": "37.761",
        "lng": "38.276"
    }
}, {
    "city": "Guven, Turkey",
    "coords": {
        "lat": "38.804",
        "lng": "41.744"
    }
}, {
    "city": "Edirne, Turkey",
    "coords": {
        "lat": "41.677",
        "lng": "26.555"
    }
}, {
    "city": "Rudnik, Serbia",
    "coords": {
        "lat": "44.139",
        "lng": "20.491"
    }
}, {
    "city": "Rimavská Sobota, Slovakia",
    "coords": {
        "lat": "48.385",
        "lng": "20.025"
    }
}, {
    "city": "Belgrade, Serbia",
    "coords": {
        "lat": "44.813",
        "lng": "20.463"
    }
}, {
    "city": "Backa Palanka, Serbia",
    "coords": {
        "lat": "45.251",
        "lng": "19.391"
    }
}, {
    "city": "Užice, Serbia",
    "coords": {
        "lat": "43.855",
        "lng": "19.853"
    }
}, {
    "city": "Aksaray, Turkey",
    "coords": {
        "lat": "38.368",
        "lng": "34.031"
    }
}, {
    "city": "Osmaniye, Turkey",
    "coords": {
        "lat": "37.073",
        "lng": "36.249"
    }
}, {
    "city": "Tabor, Slovenia",
    "coords": {
        "lat": "46.222",
        "lng": "15.014"
    }
}, {
    "city": "Balıkesir, Turkey",
    "coords": {
        "lat": "39.645",
        "lng": "27.885"
    }
}, {
    "city": "Piestany, Slovakia",
    "coords": {
        "lat": "48.592",
        "lng": "17.795"
    }
}, {
    "city": "Aleksandrovac, Serbia",
    "coords": {
        "lat": "43.458",
        "lng": "21.065"
    }
}, {
    "city": "Amasya, Turkey",
    "coords": {
        "lat": "40.652",
        "lng": "35.823"
    }
}, {
    "city": "Trabzon, Turkey",
    "coords": {
        "lat": "41.001",
        "lng": "39.717"
    }
}, {
    "city": "Subotica, Serbia",
    "coords": {
        "lat": "46.103",
        "lng": "19.632"
    }
}, {
    "city": "Zagorje, Slovenia",
    "coords": {
        "lat": "46.134",
        "lng": "14.994"
    }
}, {
    "city": "Pirot, Serbia",
    "coords": {
        "lat": "43.159",
        "lng": "22.575"
    }
}, {
    "city": "Vrnjacka Banja, Serbia",
    "coords": {
        "lat": "43.619",
        "lng": "20.888"
    }
}, {
    "city": "Košice, Slovakia",
    "coords": {
        "lat": "48.707",
        "lng": "21.258"
    }
}, {
    "city": "Duzce, Turkey",
    "coords": {
        "lat": "40.841",
        "lng": "31.151"
    }
}, {
    "city": "Çorum, Turkey",
    "coords": {
        "lat": "40.55",
        "lng": "34.955"
    }
}, {
    "city": "Balikesir, Turkey",
    "coords": {
        "lat": "39.645",
        "lng": "27.885"
    }
}, {
    "city": "Osmaniye, Turkey",
    "coords": {
        "lat": "37.073",
        "lng": "36.249"
    }
}, {
    "city": "Hatay, Turkey",
    "coords": {
        "lat": "36.426",
        "lng": "36.254"
    }
}, {
    "city": "Ljubljana, Slovenia",
    "coords": {
        "lat": "46.061",
        "lng": "14.517"
    }
}, {
    "city": "Tunceli, Turkey",
    "coords": {
        "lat": "39.108",
        "lng": "39.541"
    }
}, {
    "city": "Afyonkarahisar, Turkey",
    "coords": {
        "lat": "38.758",
        "lng": "30.538"
    }
}, {
    "city": "Maribor, Slovenia",
    "coords": {
        "lat": "46.562",
        "lng": "15.648"
    }
}, {
    "city": "Oltu , Turkey",
    "coords": {
        "lat": "40.544",
        "lng": "41.986"
    }
}, {
    "city": "Emek, Turkey",
    "coords": {
        "lat": "38.583",
        "lng": "43.983"
    }
}, {
    "city": "Duzce, Turkey",
    "coords": {
        "lat": "40.841",
        "lng": "31.151"
    }
}, {
    "city": "Sakarya, Turkey",
    "coords": {
        "lat": "40.776",
        "lng": "30.39"
    }
}, {
    "city": "Adapazari, Turkey",
    "coords": {
        "lat": "40.776",
        "lng": "30.39"
    }
}, {
    "city": "Kocaeli, Turkey",
    "coords": {
        "lat": "40.771",
        "lng": "30.025"
    }
}, {
    "city": "Bratislava, Slovakia",
    "coords": {
        "lat": "48.17",
        "lng": "17.13"
    }
}, {
    "city": "Ruma, Serbia",
    "coords": {
        "lat": "45.006",
        "lng": "19.818"
    }
}, {
    "city": "Karabuk, Turkey",
    "coords": {
        "lat": "41.196",
        "lng": "32.622"
    }
}, {
    "city": "Valjevo, Serbia",
    "coords": {
        "lat": "44.268",
        "lng": "19.896"
    }
}, {
    "city": "Cadca, Slovakia",
    "coords": {
        "lat": "49.433",
        "lng": "18.788"
    }
}, {
    "city": "Avala, Serbia",
    "coords": {
        "lat": "44.426",
        "lng": "19.929"
    }
}, {
    "city": "Ormoz, Slovenia",
    "coords": {
        "lat": "46.408",
        "lng": "16.16"
    }
}, {
    "city": "Yerkoy, Turkey",
    "coords": {
        "lat": "39.641",
        "lng": "34.468"
    }
}, {
    "city": "Antioch, Turkey",
    "coords": {
        "lat": "36.203",
        "lng": "36.159"
    }
}, {
    "city": "Kragujevac, Serbia",
    "coords": {
        "lat": "44.029",
        "lng": "20.917"
    }
}, {
    "city": "Kocaeli, Turkey",
    "coords": {
        "lat": "40.771",
        "lng": "30.025"
    }
}, {
    "city": "Kovin, Serbia",
    "coords": {
        "lat": "44.744",
        "lng": "20.984"
    }
}, {
    "city": "Bujanovac, Serbia",
    "coords": {
        "lat": "42.454",
        "lng": "21.763"
    }
}, {
    "city": "Bratislava, Slovakia",
    "coords": {
        "lat": "48.17",
        "lng": "17.13"
    }
}, {
    "city": "Sakarya, Turkey",
    "coords": {
        "lat": "40.776",
        "lng": "30.39"
    }
}, {
    "city": "Ljubljana, Slovenia",
    "coords": {
        "lat": "46.061",
        "lng": "14.517"
    }
}, {
    "city": "Zakl, Slovenia",
    "coords": {
        "lat": "46.261",
        "lng": "15.054"
    }
}, {
    "city": "Zonguldak, Turkey",
    "coords": {
        "lat": "41.45",
        "lng": "31.757"
    }
}, {
    "city": "Mut, Turkey",
    "coords": {
        "lat": "36.636",
        "lng": "33.449"
    }
}, {
    "city": "Kocaeli, Turkey",
    "coords": {
        "lat": "40.771",
        "lng": "30.025"
    }
}, {
    "city": "Majdanpek, Serbia",
    "coords": {
        "lat": "44.424",
        "lng": "21.941"
    }
}, {
    "city": "Hatay, Turkey",
    "coords": {
        "lat": "36.426",
        "lng": "36.254"
    }
}, {
    "city": "Malo Crnice, Serbia",
    "coords": {
        "lat": "44.56",
        "lng": "21.298"
    }
}, {
    "city": "Subotica, Serbia",
    "coords": {
        "lat": "46.103",
        "lng": "19.632"
    }
}, {
    "city": "Sapanca, Turkey",
    "coords": {
        "lat": "40.683",
        "lng": "30.241"
    }
}, {
    "city": "Coka, Serbia",
    "coords": {
        "lat": "45.94",
        "lng": "20.149"
    }
}, {
    "city": "Agri, Turkey",
    "coords": {
        "lat": "39.721",
        "lng": "43.051"
    }
}, {
    "city": "Balıkesir, Turkey",
    "coords": {
        "lat": "39.645",
        "lng": "27.885"
    }
}, {
    "city": "Trebnje, Slovenia",
    "coords": {
        "lat": "45.908",
        "lng": "15.025"
    }
}, {
    "city": "Kirsehir, Turkey",
    "coords": {
        "lat": "39.123",
        "lng": "34.169"
    }
}, {
    "city": "Slovenj Gradec, Slovenia",
    "coords": {
        "lat": "46.51",
        "lng": "15.082"
    }
}, {
    "city": "Savsat, Turkey",
    "coords": {
        "lat": "41.252",
        "lng": "42.368"
    }
}, {
    "city": "Nigde , Turkey",
    "coords": {
        "lat": "37.973",
        "lng": "34.696"
    }
}, {
    "city": "Mudanya, Turkey",
    "coords": {
        "lat": "40.354",
        "lng": "28.924"
    }
}, {
    "city": "Bitlis, Turkey",
    "coords": {
        "lat": "38.399",
        "lng": "42.108"
    }
},{
        "station": "Studio 5 FM",
        "city": "Porto d'Ascoli, Ascoli Piceno, Italy",
        "email": "info@studio5fm.com",
        "country": "Italy"
    },
    {
        "station": "Radio Valbelluna",
        "city": "San Martino di Castrozza, Italy",
        "email": "info@radiovalbelluna.it",
        "country": "Italy"
    },
    {
        "station": "WDR Funkhaus Europa - Meine Musik. Meine Welt. Mein Radio.",
        "city": "Cologne, Germany",
        "email": "funkhauseuropa@wdr.de",
        "country": "Germany"
    },
    {
        "station": "Radio Dolcevita",
        "city": "Ferrara, Italy",
        "email": "redazione@radiodolcevita.it",
        "country": "Italy"
    },
    {
        "station": "Rumba Stereo Murcia",
        "city": "Murcia, Spain",
        "email": "info@rumbamurcia.com",
        "country": "Spain"
    },
    {
        "station": "Radio Chanson",
        "city": "Barnaul, Altai Krai, Russia",
        "email": "www@chanson.ru",
        "country": "Russia"
    },
    {
        "station": "ClubFM Mallorca",
        "city": "Palma de Mallorca, Spain",
        "email": "info@clubfmmallorca.com",
        "country": "Spain"
    },
    {
        "station": "Free FM",
        "city": "Ulm, Baden-Württemberg, Germany",
        "email": "radio@freefm.de",
        "country": "Germany"
    },
    {
        "station": "Radio FM",
        "city": "Porto Sant'Elpidio, Ap, Italy",
        "email": "info@radiofm.net",
        "country": "Italy"
    },
    {
        "station": "Radio Sprint",
        "city": "Palermo, PA, Italy",
        "email": "giuseppevella@radiosprint.it",
        "country": "Italy"
    },
    {
        "station": "RADIO PARADISO",
        "city": "Berlin, Berlin, Germany",
        "email": "paradiso@paradiso.de",
        "country": "Germany"
    },
    {
        "station": "Radio Dimensione Musica",
        "city": "Roma, Italy",
        "email": "diretta@radiodimensionemusica.it",
        "country": "Italy"
    },
    {
        "station": "Radio Bimbache",
        "city": "Valverde, Spain",
        "email": "info@elhierro.tv",
        "country": "Spain"
    },
    {
        "station": "Radio Voz Lugo",
        "city": "Lugo, Spain",
        "email": "director@radiovoz.com",
        "country": "Spain"
    },
    {
        "station": "Vostok FM",
        "city": "Moscow, Russia",
        "email": "sdvigov@vostovfm.ru",
        "country": "Russia"
    },
    {
        "station": "RADIO 21",
        "city": "Helmstedt, Germany",
        "email": "info@radio21.de",
        "country": "Germany"
    },
    {
        "station": "Radio Aut Marche",
        "city": "Montesecco, Italy",
        "email": "publiaut@mercurio.it",
        "country": "Italy"
    },
    {
        "station": "Bollywood Radio",
        "city": "Berlin, Berlin, Germany",
        "email": "webmaster@bollywoodradio.de",
        "country": "Germany"
    },
    {
        "station": "Antenna Iblea Broadcasting",
        "city": "Modica, Italy",
        "email": "aib@antennaiblea.it",
        "country": "Italy"
    },
    {
        "station": "Europa FM (Badajoz)",
        "city": "Badajoz, Spain",
        "email": "europafm@europafm.es",
        "country": "Spain"
    },
    {
        "station": "Radio Batalha",
        "city": "Batalha, Portugal",
        "email": "geral@radiobatalha.com",
        "country": "Portugal"
    },
    {
        "station": "Radio Leverkusen",
        "city": "Leverkusen, Nordrhein-Westfalen, Germany",
        "email": "redaktion@radioleverkusen.de",
        "country": "Germany"
    },
    {
        "station": "Radio 21",
        "city": "Pitesti, Romania",
        "email": "office@radio21.ro",
        "country": "Romania"
    },
    {
        "station": "Radyo Aktif",
        "city": "Trabzon, Turkey",
        "email": "istek@aktifradyo.com",
        "country": "Turkey"
    },
    {
        "station": "Terra Quente FM",
        "city": "Mirandela, Portugal",
        "email": "radio@terraquentefm.net",
        "country": "Portugal"
    },
    {
        "station": "Radio Fokus",
        "city": "Belgrade, Serbia",
        "email": "info@fokus-radio.rs",
        "country": "Serbia"
    },
    {
        "station": "Radio Alex",
        "city": "Alessandria, Italy",
        "email": "diretta@radioalex.it",
        "country": "Italy"
    },
    {
        "station": "Авторадио",
        "city": "Tobolsk, Russia",
        "email": "info@aradio.ru",
        "country": "Russia"
    },
    {
        "station": "P4 Östergötland",
        "city": "Norrköping, Östergötland, Sweden",
        "email": "program.ostg@sr.se",
        "country": "Sweden"
    },
    {
        "station": "Radio Marija (Serbia)",
        "city": "Novi Sad, Serbia",
        "email": "radiomarija.srbija@gmail.com",
        "country": "Serbia"
    },
    {
        "station": "Радио Romantika",
        "city": "Ulyanovsk, Ulyanovsk Oblast, Russia",
        "email": "info@radioromantika.ru",
        "country": "Russia"
    },
    {
        "station": "Radio Voz Ourense",
        "city": "Ourense, Spain",
        "email": "director@radiovoz.com",
        "country": "Spain"
    },
    {
        "station": "RTL",
        "city": "Milano, Italy",
        "email": "info@rtl.it",
        "country": "Italy"
    },
    {
        "station": "Radio38 Braunschweig",
        "city": "Braunschweig, Germany",
        "email": "redaktion@radio38.de",
        "country": "Germany"
    },
    {
        "station": "Komsomolskaya Pravda Vologda",
        "city": "Vologda, Russia",
        "email": "radiokp@kp.ru",
        "country": "Russia"
    },
    {
        "station": "Radio Alhendin FM",
        "city": "Alhendin, Granada, Spain",
        "email": "radioalhendinfm@hotmail.com",
        "country": "Spain"
    },
    {
        "station": "Radio Bamberg",
        "city": "Ebelsbach, Germany",
        "email": "info@radio-bamberg.de",
        "country": "Germany"
    },
    {
        "station": "Radio Antena Satelor",
        "city": "Bacau, Romania",
        "email": "antenasatelorsite@gmail.com",
        "country": "Romania"
    },
    {
        "station": "DFM Nizhnekamsk",
        "city": "Nizhnekamsk, Russia",
        "email": "site@ntrtv.ru",
        "country": "Russia"
    },
    {
        "station": "Radio Amore Blu",
        "city": "Catania, Italy",
        "email": "info@grupporadioamore.it",
        "country": "Italy"
    },
    {
        "station": "SER Oriente (Cadena SER)",
        "city": "Llanes, Spain",
        "email": "info@seroriente.com",
        "country": "Spain"
    },
    {
        "station": "m2o",
        "city": "Trento, TRE, Italy",
        "email": "contatti@m2o.it",
        "country": "Italy"
    },
    {
        "station": "Maximum",
        "city": "Novosibirsk, Russia",
        "email": "radio@maximum.ru",
        "country": "Russia"
    },
    {
        "station": "Hit FM",
        "city": "Lviv, Ukraine",
        "email": "info@hitfm.ua",
        "country": "Ukraine"
    },
    {
        "station": "R Mayak Murman",
        "city": "Murmansk, Russia",
        "email": "inform@radiomayak.ru",
        "country": "Russia"
    },
    {
        "station": "RSA Radio",
        "city": "Mittelberg, Germany",
        "email": "info@rsa-radio.de",
        "country": "Germany"
    },
    {
        "station": "G.R. Radio Onda Network",
        "city": "Bari, Italy",
        "email": "grradioonda@media.it",
        "country": "Italy"
    },
    {
        "station": "Radio 35",
        "city": "Tiszaujvaros, Hungary",
        "email": "info@radio35.eu",
        "country": "Hungary"
    },
    {
        "station": "Rav Radio Antenna Verde",
        "city": "Frosinone, Italy",
        "email": "info@radioantennaverde.it",
        "country": "Italy"
    },
    {
        "station": "Stella FM",
        "city": "Porlezza, Italy",
        "email": "info@stella.fm",
        "country": "Italy"
    },
    {
        "station": "Radio Nostalgia Toscana",
        "city": "Firenze, Italy",
        "email": "info@radionostalgia.fm",
        "country": "Italy"
    },
    {
        "station": "NDR Kultur",
        "city": "Bremerhaven, Bremen, Germany",
        "email": "info@ndr.de",
        "country": "Germany"
    },
    {
        "station": "Radio Index",
        "city": "Belgrade, Serbia",
        "email": "kontakt@indexradio.com",
        "country": "Serbia"
    },
    {
        "station": "Radio Ramasuri",
        "city": "Weiden, Bayern, Germany",
        "email": "info@ramasuri.de",
        "country": "Germany"
    },
    {
        "station": "Napoca FM",
        "city": "Cluj-Napoca, Romania",
        "email": "office@napocafm.ro",
        "country": "Romania"
    },
    {
        "station": "Radio Chanson",
        "city": "Bolshoy Kamen, Primorsky Krai, Russia",
        "email": "www@chanson.ru",
        "country": "Russia"
    },
    {
        "station": "BluRadio",
        "city": "Arona, NO, Italy",
        "email": "info@bluradio.it",
        "country": "Italy"
    },
    {
        "station": "Radio Press",
        "city": "Cagliari, Italy",
        "email": "redazione@radiopress.it",
        "country": "Italy"
    },
    {
        "station": "Radio Reporter",
        "city": "Milano, Italy",
        "email": "radioreporter@radioreporter.it",
        "country": "Italy"
    },
    {
        "station": "Titoieta Radio",
        "city": "Algaida, Spain",
        "email": "radio@titoieta.cat",
        "country": "Spain"
    },
    {
        "station": "Lux FM",
        "city": "Lutsk, Volyn Oblast, Ukraine",
        "email": "radio@lux.fm",
        "country": "Ukraine"
    },
    {
        "station": "Radio FRESH",
        "city": "Irkutsk, Irkutsk Oblast, Russia",
        "email": "irk@avtos.com",
        "country": "Russia"
    },
    {
        "station": "Radio Bubamara",
        "city": "Svrljig, Serbia",
        "email": "radiobubamara@hotmail.com",
        "country": "Serbia"
    },
    {
        "station": "Авторадио",
        "city": "Cheboksary, Russia",
        "email": "info@aradio.ru",
        "country": "Russia"
    },
    {
        "station": "Kazak FM",
        "city": "Krasnodar, Russia",
        "email": "news@kazak.fm",
        "country": "Russia"
    },
    {
        "station": "Radio Antenna Campania",
        "city": "Nola , Italy",
        "email": "info@radioantennacampania.it",
        "country": "Italy"
    },
    {
        "station": "KPTV - 88.4 FM",
        "city": "Târgu Mures, Romania",
        "email": "radio@kptv.ro",
        "country": "Romania"
    },
    {
        "station": "Dorojnoe radio Omsk",
        "city": "Omsk, Russia",
        "email": "smg@omskfm.ru",
        "country": "Russia"
    },
    {
        "station": "Radio Ton - Bad Mergentheim",
        "city": "Bad Mergentheim, Germany",
        "email": "web@radioton.de",
        "country": "Germany"
    },
    {
        "station": "Radio ROKS",
        "city": "Kharkiv, Ukraine",
        "email": "x@radioroks.ua",
        "country": "Ukraine"
    },
    {
        "station": "Radio Europa 05",
        "city": "Ljubljana, Slovenia",
        "email": "studio@radioeuropa05.si",
        "country": "Slovenia"
    },
    {
        "station": "Radio Oltenia Craiova",
        "city": "Craiova, Romania",
        "email": "office@radiocraiova.ro",
        "country": "Romania"
    },
    {
        "station": "Nika FM",
        "city": "Kirov, Kaluga Oblast, Russia",
        "email": " ikarpova@nikatv.ru",
        "country": "Russia"
    },
    {
        "station": "TLA Radio",
        "city": "Aljustrel, Portugal",
        "email": "tlaradio@iol.pt",
        "country": "Portugal"
    },
    {
        "station": "Radio San Donà",
        "city": "San Dona, Italy",
        "email": "radio@radiosandona.it",
        "country": "Italy"
    },
    {
        "station": "Radio Buon Consiglio",
        "city": "Vallemaio, Italy",
        "email": "rbuonconsiglio@gmail.com",
        "country": "Italy"
    },
    {
        "station": "harmony.fm",
        "city": "Eschwege, Germany",
        "email": "studio@harmonyfm.de",
        "country": "Germany"
    },
    {
        "station": "Radio Vicenza",
        "city": "Vicenza, Italy",
        "email": "sandro@radiovicenza.eu",
        "country": "Italy"
    },
    {
        "station": "Radio UNiCC",
        "city": "Chemnitz, Germany",
        "email": "kontakt@radio-unicc.de",
        "country": "Germany"
    },
    {
        "station": "Radio Capri",
        "city": "Capri, Italy",
        "email": "capri@radiocapri.it",
        "country": "Italy"
    },
    {
        "station": "Radio Feierwerk",
        "city": "München, Bayern, Germany",
        "email": "culture@feierwerk.de",
        "country": "Germany"
    },
    {
        "station": "Radio 32",
        "city": "Solothurn, SO, Switzerland",
        "email": "info@radio32.ch",
        "country": "Switzerland"
    },
    {
        "station": "Europa FM",
        "city": "Bucureşti, Romania",
        "email": "webmaster@europafm.ro",
        "country": "Romania"
    },
    {
        "station": "Alanya Radyo Time",
        "city": "Alanya, Turkey",
        "email": "reklam@alanyaradyotime.com",
        "country": "Turkey"
    },
    {
        "station": "Caravaca De La Cruz",
        "city": "Caravaca, Spain",
        "email": "cadenaenergiafm@hotmail.com",
        "country": "Spain"
    },
    {
        "station": "Radio Margherita Network",
        "city": "Pescara, Italy",
        "email": "info@radiomargherita.com",
        "country": "Italy"
    },
    {
        "station": "Stolica FM",
        "city": "Moscow, Russia",
        "email": "radio@stolica.fm",
        "country": "Russia"
    },
    {
        "station": "Radio Diaconia",
        "city": "Fasano, Italy",
        "email": "info@radiodiaconia.it",
        "country": "Italy"
    },
    {
        "station": "WDR2 Ostwestfalen-Lippe",
        "city": "Warburg, Germany",
        "email": "wdr2@wdr.de",
        "country": "Germany"
    },
    {
        "station": "LoungeFM",
        "city": "Dnipropetrovs'k, Ukraine",
        "email": "a.ptushkin@radiogroup.com.ua",
        "country": "Ukraine"
    },
    {
        "station": "Focus FM",
        "city": "Buzau, Romania",
        "email": "redactie@focusfm.ro",
        "country": "Romania"
    },
    {
        "station": "Boss Radio",
        "city": "Novi Sad, Serbia",
        "email": "bossradio@ns.sbb.co.yu",
        "country": "Serbia"
    },
    {
        "station": "Radio Secanj",
        "city": "Secanj, Serbia",
        "email": "radiosecanj@beotel.net",
        "country": "Serbia"
    },
    {
        "station": "radio TOP 40",
        "city": "Weimar, Thüringen, Germany",
        "email": "post@radiotop40.de",
        "country": "Germany"
    },
    {
        "station": "Maximum",
        "city": "Saint Petersburg, Russia",
        "email": "radio@maximum.ru",
        "country": "Russia"
    },
    {
        "station": "Radio LatteMiele",
        "city": "Ancona, Italy",
        "email": "info@lattemiele.com",
        "country": "Italy"
    },
    {
        "station": "YOU FM - YOUNG FRESH MUSIC",
        "city": "Eschwege, Germany",
        "email": "studio@you-fm.de",
        "country": "Germany"
    },
    {
        "station": "Avto Radio",
        "city": "Kaliningrad, Russia",
        "email": "info@aradio.ru",
        "country": "Russia"
    },
    {
        "station": "Radyo Camlica",
        "city": "Balikesir, Turkey",
        "email": "info@radyocamlica.com",
        "country": "Turkey"
    },
    {
        "station": "Nova Onda Albacete",
        "city": "Albacete, Spain",
        "email": "novaonda@amialbacete.com",
        "country": "Spain"
    },
    {
        "station": "Stadtradio Meran",
        "city": "Merano, Italy",
        "email": "info@stadtradio-meran.it",
        "country": "Italy"
    },
    {
        "station": "Bayern 3",
        "city": "Ochsenkopf, Bayern, Germany",
        "email": "studio@bayern3.de",
        "country": "Germany"
    },
    {
        "station": "Enny Sound-Bari",
        "city": "Bari, Italy",
        "email": "ennyone@libero.it",
        "country": "Italy"
    },
    {
        "station": "Retro FM",
        "city": "Vladivostok, Primorsky Krai, Russia",
        "email": "office@retrofm.ru",
        "country": "Russia"
    },
    {
        "station": "Gamma Radio",
        "city": "Novara, Lombardia, Italy",
        "email": "gamma@gammaradio.it",
        "country": "Italy"
    },
    {
        "station": "Fantasy Dance FM",
        "city": "Augsburg, Bayern, Germany",
        "email": "mail@fantasy967.de",
        "country": "Germany"
    },
    {
        "station": "Ràdio Falset",
        "city": "Falset, Spain",
        "email": "laradio@falset.net",
        "country": "Spain"
    },
    {
        "station": "Onda Cero - Murcia",
        "city": "Murcia, Murcia, Spain",
        "email": "ondacero@ondacero.es",
        "country": "Spain"
    },
    {
        "station": "Radio Beckwith",
        "city": "Luserna San Giovanni, TO, Italy",
        "email": "redazione@rbe.it",
        "country": "Italy"
    },
    {
        "station": "Radio Jerez (Cadena SER)",
        "city": "Jerez, Spain",
        "email": "emisiones@radiojerez.com",
        "country": "Spain"
    },
    {
        "station": "Radio Prlek",
        "city": "Ormoz, Slovenia",
        "email": "info@radioprlek.net",
        "country": "Slovenia"
    },
    {
        "station": "Radio Beira Interior",
        "city": "Beira, Portugal",
        "email": "radio.interior@netvisao.pt",
        "country": "Portugal"
    },
    {
        "station": "Radio Krka",
        "city": "Novo mesto, Slovenia",
        "email": "novice@radiokrka.com",
        "country": "Slovenia"
    },
    {
        "station": "NRJ Leman",
        "city": "Geneva, Switzerland",
        "email": "info@nrj.ch",
        "country": "Switzerland"
    },
    {
        "station": "RAM Radio Audizioni Mediterranea",
        "city": "Rosolini, Italy",
        "email": "radioram@tiscali.it",
        "country": "Italy"
    },
    {
        "station": "Radio Palermo Centrale",
        "city": "Bagheria, PA, Italy",
        "email": "info@radiopalermocentrale.it",
        "country": "Italy"
    },
    {
        "station": "ANTENNE THUERINGEN",
        "city": "Nordhausen, Germany",
        "email": "kontakt@antennethueringen.de",
        "country": "Germany"
    },
    {
        "station": "RAI Radio 2",
        "city": "Argelato, EMI, Italy",
        "email": "direttaradio2@rai.it",
        "country": "Italy"
    },
    {
        "station": "Sibari Sole FM",
        "city": "Cosenza, Italy",
        "email": "info@radiosibarisole.net",
        "country": "Italy"
    },
    {
        "station": "Dorojnoe Radio",
        "city": "Kirov, Kirov Oblast, Russia",
        "email": "reclama@dorognoe.ru",
        "country": "Russia"
    },
    {
        "station": "MR1-Kossuth Rádió",
        "city": "Solt, Budapest, Hungary",
        "email": "mr1-kossuth@radio.hu",
        "country": "Hungary"
    },
    {
        "station": "Onda Cero - Teruel",
        "city": "Teruel, Spain",
        "email": "teruel@ondacero.es",
        "country": "Spain"
    },
    {
        "station": "Radio Adige",
        "city": "Villafranca Piemonte, Italy",
        "email": "radioadige@radioadige.it",
        "country": "Italy"
    },
    {
        "station": "Children's radio",
        "city": "Volgograd, Russia",
        "email": "info@deti.fm",
        "country": "Russia"
    },
    {
        "station": "Radio 24 Pop",
        "city": "Zurich, Switzerland",
        "email": "info@radio24.ch",
        "country": "Switzerland"
    },
    {
        "station": "Bayern 1",
        "city": "Kreuzberg, Bayern, Germany",
        "email": "bayern1@br-online.de",
        "country": "Germany"
    },
    {
        "station": "Radio Versilia RFM-inBlu",
        "city": "Viareggio, Italy",
        "email": "info@reteversilia.com",
        "country": "Italy"
    },
    {
        "station": "Авторадио",
        "city": "Kemerovo, Russia",
        "email": "info@aradio.ru",
        "country": "Russia"
    },
    {
        "station": "Inforadio vom rbb",
        "city": "Cottbus, Germany",
        "email": "info@inforadio.de",
        "country": "Germany"
    },
    {
        "station": "hr-iNFO Informationsradio",
        "city": "Bensheim, Germany",
        "email": "hr-info@hr-online.de",
        "country": "Germany"
    },
    {
        "station": "Radio Missione Francescana",
        "city": "Premeno, Italy",
        "email": "info@rmf.it",
        "country": "Italy"
    },
    {
        "station": "Radio Monte Carlo 2",
        "city": "Venezia, Italy",
        "email": "radioweb@radiomontecarlo.net",
        "country": "Italy"
    },
    {
        "station": "ENERGY Berlin",
        "city": "Berlin, Berlin, Germany",
        "email": "energyberlin@energy.de",
        "country": "Germany"
    },
    {
        "station": "Radio 24",
        "city": "Vittorio Veneto, Veneto, Italy",
        "email": "info@radio24.it",
        "country": "Italy"
    },
    {
        "station": "Radio Chanson",
        "city": "Yaroslavl', Russia",
        "email": "www@chanson.ru",
        "country": "Russia"
    },
    {
        "station": "Radio Frequence Jura",
        "city": "Delémont, Switzerland",
        "email": "redaction@rfj.ch",
        "country": "Switzerland"
    },
    {
        "station": "Radio Club 103",
        "city": "Cortina Vecctia, Italy",
        "email": "club103@club103.com",
        "country": "Italy"
    },
    {
        "station": "Loca Fun Radio Asturias",
        "city": "Oviedo, Spain",
        "email": "locafmasturias@hotmail.com",
        "country": "Spain"
    },
    {
        "station": "Radio Bussola 24",
        "city": "Salerno, SA, Italy",
        "email": "radio@bussola24.it",
        "country": "Italy"
    },
    {
        "station": "Russkoe Radio Novosibirsk",
        "city": "Novosibirsk, Russia",
        "email": "grammofon@nsk.rr.ru",
        "country": "Russia"
    },
    {
        "station": "Radio Hit",
        "city": "Iasi, Romania",
        "email": "stiri@radiohit.ro",
        "country": "Romania"
    },
    {
        "station": "Radio C",
        "city": "Yekaterinburg, Sverdlovsk Oblast, Russia",
        "email": "secretary@radioc.ru",
        "country": "Russia"
    },
    {
        "station": "Radio Flash 97.6",
        "city": "Torino, TO, Italy",
        "email": "diretta@radioflash.to",
        "country": "Italy"
    },
    {
        "station": "Radio San Sebastián (Cadena SER)",
        "city": "Granada, Spain",
        "email": "radiosansebastian@cadenaser.com",
        "country": "Spain"
    },
    {
        "station": "Onda Cadiz Radio",
        "city": "Cádiz, Spain",
        "email": "info@ondacadiz.es",
        "country": "Spain"
    },
    {
        "station": "Radio Studio Più 2",
        "city": "Verona, VEN, Italy",
        "email": "info@radiostudiopiu.it",
        "country": "Italy"
    },
    {
        "station": "Radio Ufaleya",
        "city": "Ufaley, Russia",
        "email": "radio_ufaleya@mail.ru",
        "country": "Russia"
    },
    {
        "station": "Radio Antena Satelor",
        "city": "Vidra, Romania",
        "email": "antenasatelorsite@gmail.com",
        "country": "Romania"
    },
    {
        "station": "RETE KAPPA TOP 100",
        "city": "Lecco, Italy",
        "email": "info@retekappa.it",
        "country": "Italy"
    },
    {
        "station": "Radyo 13",
        "city": "Bitlis, Turkey",
        "email": "iletisim@radyo13.com",
        "country": "Turkey"
    },
    {
        "station": "Radio Arabella",
        "city": "München, Bayern, Germany",
        "email": "info@radioarabella.de",
        "country": "Germany"
    },
    {
        "station": "Radio Studio Piu",
        "city": "Velo Veronese, Italy",
        "email": "info@studiopiu.net",
        "country": "Italy"
    },
    {
        "station": "Hit Radio X",
        "city": "Strasse, Bavaria, Germany",
        "email": "kontakt@hitradiox.com",
        "country": "Germany"
    },
    {
        "station": "Radio PSR",
        "city": "Leipzig, Sachsen, Germany",
        "email": "service@radiopsr.de",
        "country": "Germany"
    },
    {
        "station": "Radio Evangelo Agrigento",
        "city": "Raffadali, Italy",
        "email": "segreteria@radioevangelo.info",
        "country": "Italy"
    },
    {
        "station": "N-Joy Radio",
        "city": "Kaposvár, Hungary",
        "email": "enjoyradio@enjoyradio.hu",
        "country": "Hungary"
    },
    {
        "station": "Radio Mayak",
        "city": "Cherepovets, Russia",
        "email": "www@radiomayak.ru",
        "country": "Russia"
    },
    {
        "station": "Radyo Can",
        "city": "Can, Turkey",
        "email": "iletisim@radyocanfm.com.tr",
        "country": "Turkey"
    },
    {
        "station": "Megapolis FM",
        "city": "Moscow, Russia",
        "email": "adv@megapolis895.fm",
        "country": "Russia"
    },
    {
        "station": "Radonezh",
        "city": "Moscow, Russia",
        "email": "nfo@radonezh.ru",
        "country": "Russia"
    },
    {
        "station": "Radyo Elci",
        "city": "Afyonkarahisar, Turkey",
        "email": "info@radyoelci.com",
        "country": "Turkey"
    },
    {
        "station": "Radio Subasio",
        "city": "Castello di Fiemme, Italy",
        "email": "subasio@radiosubasio.it",
        "country": "Italy"
    },
    {
        "station": "Radio Veronica One",
        "city": "Saint-Vincent, Italy",
        "email": "info@radioveronica.it",
        "country": "Italy"
    },
    {
        "station": "RPA",
        "city": "Gijón, Spain",
        "email": "rtpa@rtpa.princast.es",
        "country": "Spain"
    },
    {
        "station": "Radio 94 FM",
        "city": "Leiria, Portugal",
        "email": "geral@radio94fm.pt",
        "country": "Portugal"
    },
    {
        "station": "105'5 Spreeradio",
        "city": "Berlin, Brandenburg, Germany",
        "email": "kontakt@spreeradio.de",
        "country": "Germany"
    },
    {
        "station": "Radio 105.5",
        "city": "Yuzhno-Sakhalinsk, Russia",
        "email": "office@astv.ru",
        "country": "Russia"
    },
    {
        "station": "NDR Info",
        "city": "Lübeck, Germany",
        "email": "info@ndrinfo.de",
        "country": "Germany"
    },
    {
        "station": "Radio Triglav",
        "city": "Jesenice, Slovenia",
        "email": "info@radiotriglav.si",
        "country": "Slovenia"
    },
    {
        "station": "Ozon Radio",
        "city": "Sremska Mitrovica, Serbia",
        "email": "redakcija@ozon.rs",
        "country": "Serbia"
    },
    {
        "station": "Radio Bari",
        "city": "Bari, Italy",
        "email": "info@radiobari.net",
        "country": "Italy"
    },
    {
        "station": "Bayern 3",
        "city": "Coburg, Bayern, Germany",
        "email": "studio@bayern3.de",
        "country": "Germany"
    },
    {
        "station": "ENERGY Stuttgart",
        "city": "Schorndorf, Germany",
        "email": "studiostuttgart@energy.de",
        "country": "Germany"
    },
    {
        "station": "Radio Record",
        "city": "Ukhta, Komi Republic, Russia",
        "email": "support@radiorecord.ru",
        "country": "Russia"
    },
    {
        "station": "NPR Berlin",
        "city": "Berlin, Germany",
        "email": "nprberlin@nprberlin.de",
        "country": "Germany"
    },
    {
        "station": "Bayern 3",
        "city": "Passau, Bayern, Germany",
        "email": "studio@bayern3.de",
        "country": "Germany"
    },
    {
        "station": "Radio 3FACH",
        "city": "Lucerne, Switzerland",
        "email": "studiomail@3fach.ch",
        "country": "Switzerland"
    },
    {
        "station": "Stil FM",
        "city": "Cluj-Napoca, Romania",
        "email": "radiostil1061@yahoo.com",
        "country": "Romania"
    },
    {
        "station": "Авторадио",
        "city": "Tver, Russia",
        "email": "info@aradio.ru",
        "country": "Russia"
    },
    {
        "station": "Deutschlandfunk",
        "city": "Nürnberg, Bayern, Germany",
        "email": "hoererservice@deutschlandradio.de",
        "country": "Germany"
    },
    {
        "station": "Onda Libera 103",
        "city": "Leonforte, Italy",
        "email": "info@rol103.it",
        "country": "Italy"
    },
    {
        "station": "Life Gate Radio",
        "city": "Torino, Italy",
        "email": "inforadio@lifegate.it",
        "country": "Italy"
    },
    {
        "station": "Circuito International Radio",
        "city": "Cavarzere, Italy",
        "email": "direzione@internationalradio.it",
        "country": "Italy"
    },
    {
        "station": "Radio Mia",
        "city": "Palermo, Italy",
        "email": "info@radiomia.it",
        "country": "Italy"
    },
    {
        "station": "Radio Magenta-inBlu",
        "city": "Marcallo con Casone, Italy",
        "email": "info@radiomagenta.it",
        "country": "Italy"
    },
    {
        "station": "Radio M P A",
        "city": "Montesano Salentino, Italy",
        "email": "radiompa@radiompa.it",
        "country": "Italy"
    },
    {
        "station": "Hit FM",
        "city": "Novy Urengoy, Yamalo-Nenets Autonomous Okrug, Russia",
        "email": "hitfm@hitfm.ru",
        "country": "Russia"
    },
    {
        "station": "Radio Cuore",
        "city": "La Spezia, Liguria, Italy",
        "email": "cuore@radiocuore.it",
        "country": "Italy"
    },
    {
        "station": "Onda Cero - Talavera de la Reina",
        "city": "Talavera de la Reina, Spain",
        "email": "ondacero@ondacero.es",
        "country": "Spain"
    },
    {
        "station": "Radio Company Campania",
        "city": "Benevento, Italy",
        "email": "info@areacompanyonline.com",
        "country": "Italy"
    },
    {
        "station": "Bajai Rádió",
        "city": "Baja, Bacs-Kiskun Province, Hungary",
        "email": "info@bajairadio.hu",
        "country": "Hungary"
    },
    {
        "station": "Sunday Radio",
        "city": "Lucera, FG, Italy",
        "email": "info@sundayradio.it",
        "country": "Italy"
    },
    {
        "station": "Sudtirol 1",
        "city": "Bolzano, Italy",
        "email": "meinradio@suedtirol1.it",
        "country": "Italy"
    },
    {
        "station": "Radio Guerrilla",
        "city": "Craiova, Romania",
        "email": "statmajor@radioguerrilla.ro",
        "country": "Romania"
    },
    {
        "station": "Radio Internazionale",
        "city": "Olbia, Italy",
        "email": "diretta@radiointernazionale.it",
        "country": "Italy"
    },
    {
        "station": "Radio Kiss Kiss",
        "city": "Caprarola, Italy",
        "email": "info@kisskiss.it",
        "country": "Italy"
    },
    {
        "station": "Era FM",
        "city": "Kiev, Ukraine",
        "email": "office@radioera.com.ua",
        "country": "Ukraine"
    },
    {
        "station": "Deutschlandfunk",
        "city": "Berlin, Berlin, Germany",
        "email": "hoererservice@deutschlandradio.de",
        "country": "Germany"
    },
    {
        "station": "Radio Mayak",
        "city": "Ardatov, Republic of Mordovia, Russia",
        "email": "www@radiomayak.ru",
        "country": "Russia"
    },
    {
        "station": "NDR Kultur",
        "city": "Bad Oldesloe, Germany",
        "email": "info@ndr.de",
        "country": "Germany"
    },
    {
        "station": "Radio Maribor",
        "city": "Maribor, Slovenia",
        "email": "radio.maribor@rtvslo.si",
        "country": "Slovenia"
    },
    {
        "station": "Radio Radlje",
        "city": "Radlje ob Dravi, Slovenia",
        "email": "info@radioradlje.si",
        "country": "Slovenia"
    },
    {
        "station": "ProFM Campus",
        "city": "Cluj-Napoca, Romania",
        "email": "profm @ profm.ro",
        "country": "Romania"
    },
    {
        "station": "X EUROPA",
        "city": "Oviedo, Spain",
        "email": "lamegaeuropa@hotmail.com",
        "country": "Spain"
    },
    {
        "station": "Radio 8 Kormend",
        "city": "kormend, Hungary",
        "email": "radio@radiokormend.com",
        "country": "Hungary"
    },
    {
        "station": "Radio MK",
        "city": "Halver, Germany",
        "email": "info@radio-mk.de",
        "country": "Germany"
    },
    {
        "station": "Lattemiele - Basilicata",
        "city": "Lagonegro, Italy",
        "email": "redazione@retesudaudio.com",
        "country": "Italy"
    },
    {
        "station": "Radio Contadero",
        "city": "Granada, Spain",
        "email": "radiocontadero@huetorvega.com",
        "country": "Spain"
    },
    {
        "station": "Radio Gherdeina Dolomites",
        "city": "Arabba, Italy",
        "email": "info@radiogardena.it",
        "country": "Italy"
    },
    {
        "station": "L-Rádio",
        "city": "Liptovsky Mikulas, Slovakia",
        "email": "lradio@lradio.sk",
        "country": "Slovakia"
    },
    {
        "station": "RNV",
        "city": "Ekaterinburg, Russia",
        "email": "rnv@intervolna.com",
        "country": "Russia"
    },
    {
        "station": "Radio Zeta",
        "city": "Acqui Terme, Piemonte , Italy",
        "email": "diretta@radiozeta.it",
        "country": "Italy"
    },
    {
        "station": "Radio Pavia Più",
        "city": "Pavia, Italy",
        "email": "redazione@paviapiu.it",
        "country": "Italy"
    },
    {
        "station": "LatteMiele Marche Abruzzo",
        "city": "Ascoli Piceno, Italy",
        "email": "info@lattemieleascoli.it",
        "country": "Italy"
    },
    {
        "station": "Radio Albolote",
        "city": "Albolote, Spain",
        "email": "radio@albolote.com",
        "country": "Spain"
    },
    {
        "station": "Radio Clodia",
        "city": "Chioggia, Italy",
        "email": "info@radioclodia.it",
        "country": "Italy"
    },
    {
        "station": "Monte Carlo",
        "city": "Saint Petersburg, Russia",
        "email": "zunev@pmiradio.ru",
        "country": "Russia"
    },
    {
        "station": "Kiss FM Ukraine",
        "city": "Donets'k, Ukraine",
        "email": "info@kissfm.ua",
        "country": "Ukraine"
    },
    {
        "station": "Radio Deejay",
        "city": "Campobasso, MOL, Italy",
        "email": "diretta@deejay.it",
        "country": "Italy"
    },
    {
        "station": "Radio Medias 725",
        "city": "Medias, Romania",
        "email": "radiomedias725@birotec.ro",
        "country": "Romania"
    },
    {
        "station": "Hit FM",
        "city": "Yessentuki, Stavropol Krai, Russia",
        "email": "hitfm@hitfm.ru",
        "country": "Russia"
    },
    {
        "station": "Radio Deejay",
        "city": "Ancona, MAR, Italy",
        "email": "diretta@deejay.it",
        "country": "Italy"
    },
    {
        "station": "Sunshine FM",
        "city": "Nyiregyhaza, Hungary",
        "email": "info@sunshinefm.hu",
        "country": "Hungary"
    },
    {
        "station": "Bremen Vier Axel P",
        "city": "Bremen, Germany",
        "email": "bremenvier@radiobremen.de",
        "country": "Germany"
    },
    {
        "station": "N-Joy Radio 88.9",
        "city": "Zalaegerszeg, Hungary",
        "email": "info@enjoyradio.hu",
        "country": "Hungary"
    },
    {
        "station": "Radio Touring Sicilia-FM Italia",
        "city": "Paternò, Italy",
        "email": "info@mediatouring.it",
        "country": "Italy"
    },
    {
        "station": "Play Radio",
        "city": "Belgrade, Serbia",
        "email": "radio@b92.net",
        "country": "Serbia"
    },
    {
        "station": "Radio Stereo 5",
        "city": "Pompei, NA, Italy",
        "email": "manzi@stereo5.it",
        "country": "Italy"
    },
    {
        "station": "Onda Melodia - Lugo",
        "city": "Lugo, Spain",
        "email": "ondacero@ondacero.es",
        "country": "Spain"
    },
    {
        "station": "Hit FM Yaroslavl'",
        "city": "Yaroslavl', Yaroslavl Oblast, Russia",
        "email": "director@radio76.ru",
        "country": "Russia"
    },
    {
        "station": "Radio Argento",
        "city": "Monopoli, Italy",
        "email": "info@radioargento.it",
        "country": "Italy"
    },
    {
        "station": "Nyugat Rádió",
        "city": "Szombathely, Hungary",
        "email": "info@nyugatradio.hu",
        "country": "Hungary"
    },
    {
        "station": "Realitatea FM",
        "city": "Cluj-Napoca, Romania",
        "email": "radio@realitateafm.net",
        "country": "Romania"
    },
    {
        "station": "ERF Radio",
        "city": "Wetzlar, Hessen, Germany",
        "email": "online@erf.de",
        "country": "Germany"
    },
    {
        "station": "Radio Studiodue",
        "city": "Centuripe, Italy",
        "email": "info@radiostudiodue.it",
        "country": "Italy"
    },
    {
        "station": "MDR FIGARO",
        "city": "Wittenberg, Germany",
        "email": "zuschauerservice@mdr.de",
        "country": "Germany"
    },
    {
        "station": "Los 40 Principales (Osona)",
        "city": "Osona, Spain",
        "email": "els40@els40.com",
        "country": "Spain"
    },
    {
        "station": "RAI Radio 3",
        "city": "Ancona, MAR, Italy",
        "email": "radio3@rai.it",
        "country": "Italy"
    },
    {
        "station": "Tam Tam Network",
        "city": "Bologna, Italy",
        "email": "info@tamtamnet.com",
        "country": "Italy"
    },
    {
        "station": "Onda Aranuelo",
        "city": "Talayuela, Spain",
        "email": "info@radiotalayuela.com",
        "country": "Spain"
    },
    {
        "station": "Lux FM",
        "city": "Khmelnytskyi, Khmelnytskyi Oblast, Ukraine",
        "email": "radio@lux.fm",
        "country": "Ukraine"
    },
    {
        "station": "Radio Ibiza",
        "city": "Colle, Italy",
        "email": "info@radioibiza.it",
        "country": "Italy"
    },
    {
        "station": "Echo of Moscow",
        "city": "Samara, Samara Oblast, Russia",
        "email": "echo@echo.msk.ru",
        "country": "Russia"
    },
    {
        "station": "Radio Informa",
        "city": "Canelli, AT, Italy",
        "email": "redazione@radioinforma.it",
        "country": "Italy"
    },
    {
        "station": "R.SH",
        "city": "Kiel, Schleswig-Holstein, Germany",
        "email": "redaktion@rsh.de",
        "country": "Germany"
    },
    {
        "station": "Radio 216",
        "city": "Zitiste, Serbia",
        "email": "radio216@gimelnet.rs",
        "country": "Serbia"
    },
    {
        "station": "Vesti FM",
        "city": "Moscow, Russia",
        "email": "vesti-fm@vgtrk.com",
        "country": "Russia"
    },
    {
        "station": "Power Hit Radio",
        "city": "Murmansk, Murmansk Oblast, Russia",
        "email": "power@phr.ru",
        "country": "Russia"
    },
    {
        "station": "Radio La Roda",
        "city": "La Roda, Spain",
        "email": "radiolaroda@laroda.es",
        "country": "Spain"
    },
    {
        "station": "Radio Galileo",
        "city": "Nocera Inferiore, Italy",
        "email": "agenzia.galileo@gmail.com",
        "country": "Italy"
    },
    {
        "station": "Radio Studio Delta",
        "city": "Marciana, Italy",
        "email": "info@radiostudiodelta.it",
        "country": "Italy"
    },
    {
        "station": "TopRadio",
        "city": "Fregona, TV, Italy",
        "email": "info@topradio.it",
        "country": "Italy"
    },
    {
        "station": "MaximaFm Andalucia Centro",
        "city": "Lucena, Spain",
        "email": "info@andaluciacentro.com",
        "country": "Spain"
    },
    {
        "station": "Radio Cuore",
        "city": "Centro, Lombardia, Italy",
        "email": "cuore@radiocuore.it",
        "country": "Italy"
    },
    {
        "station": "Business FM Rostov-on-Don",
        "city": "Rostov-on-Don, Russia",
        "email": "reclama@adv-um.ru",
        "country": "Russia"
    },
    {
        "station": "Radio Orfey",
        "city": "Kurgan, Kurgan Oblast, Russia",
        "email": "rgmc@muzcentrum.ru",
        "country": "Russia"
    },
    {
        "station": "Deutschlandradio Kultur",
        "city": "Heilbronn, Germany",
        "email": "hoererservice@dradio.de",
        "country": "Germany"
    },
    {
        "station": "Radio Gamma",
        "city": "Savignano sul Rubicone, FC, Italy",
        "email": "Redazione@radiogamma.it",
        "country": "Italy"
    },
    {
        "station": "HITZ FM",
        "city": "Tranas, Sweden",
        "email": "redaktionen@hitzfm.se",
        "country": "Sweden"
    },
    {
        "station": "Radyo Play",
        "city": "Kocaeli, Turkey",
        "email": "tv41@tv41.com.tr",
        "country": "Turkey"
    },
    {
        "station": "UR 3 R Kultura",
        "city": "Kiev, Ukraine",
        "email": "dykyi@nrcu.gov.ua",
        "country": "Ukraine"
    },
    {
        "station": "Radio Antenna Musica",
        "city": "Terni, TR, Italy",
        "email": "info@radioantenna.com",
        "country": "Italy"
    },
    {
        "station": "Lounge Radio",
        "city": "Budapest, Hungary",
        "email": "info@loungeradio.hu",
        "country": "Hungary"
    },
    {
        "station": "Radio PoPizz (Pop-Hits)",
        "city": "Bari, Italy",
        "email": "info@radiopopizz.it",
        "country": "Italy"
    },
    {
        "station": "Radio OKJ",
        "city": "Jena, Thüringen, Germany",
        "email": "info@radio-okj.de",
        "country": "Germany"
    },
    {
        "station": "Radio Palencia (Cadena SER)",
        "city": "Ourense, Spain",
        "email": "palencia@cadenaser.com",
        "country": "Spain"
    },
    {
        "station": "Hit FM",
        "city": "Aleksin, Tula Oblast, Russia",
        "email": "hitfm@hitfm.ru",
        "country": "Russia"
    },
    {
        "station": "Dorojnoe Radio",
        "city": "Bryansk, Bryansk Oblast, Russia",
        "email": "reclama@dorognoe.ru",
        "country": "Russia"
    },
    {
        "station": "MFM",
        "city": "Cheboksary, Chuvash Republic, Russia",
        "email": "radio@media-lider.ru",
        "country": "Russia"
    },
    {
        "station": "Radio Alfa FM",
        "city": "Baragiano, Potenza , Italy",
        "email": "info@radioalfa.com",
        "country": "Italy"
    },
    {
        "station": "YOU FM - YOUNG FRESH MUSIC",
        "city": "Friedberg, Bayern, Germany",
        "email": "studio@you-fm.de",
        "country": "Germany"
    },
    {
        "station": "Radio Alpenwelle",
        "city": "Bad Tolz, Germany",
        "email": "redaktion@alpenwelle.de",
        "country": "Germany"
    },
    {
        "station": "Radio Juneda",
        "city": "Juneda, Spain",
        "email": "radio-juneda@teleline.es",
        "country": "Spain"
    },
    {
        "station": "B5 aktuell",
        "city": "Kreuzberg, Germany",
        "email": "b5aktuell@br-online.de",
        "country": "Germany"
    },
    {
        "station": "Дорожное радио",
        "city": "Chebsara, Russia",
        "email": "reclama@dorognoe.ru",
        "country": "Russia"
    },
    {
        "station": "Radio 24",
        "city": "Perugia, Umbria, Italy",
        "email": "info@radio24.it",
        "country": "Italy"
    },
    {
        "station": "radio ffn",
        "city": "Steinkimmen, Germany",
        "email": "radio@ffn.de",
        "country": "Germany"
    },
    {
        "station": "Radio Braganca Noticias",
        "city": "Braganca, Portugal",
        "email": "info@rba.pt",
        "country": "Portugal"
    },
    {
        "station": "Lux FM",
        "city": "Uzhhorod, Zakarpattia Oblast, Ukraine",
        "email": "radio@lux.fm",
        "country": "Ukraine"
    },
    {
        "station": "Komsomolskaya Pravda - Barnaul",
        "city": "Barnaul, Russia",
        "email": "radiokp@kp.ru",
        "country": "Russia"
    },
    {
        "station": "Radio Cullar FM",
        "city": "Cullar-Vega, Spain",
        "email": "contacto@radiocullar.es",
        "country": "Spain"
    },
    {
        "station": "Radio Kiss Kiss",
        "city": "Busalla, LIG , Italy",
        "email": "info@kisskiss.it",
        "country": "Italy"
    },
    {
        "station": "R.SA",
        "city": "Mügeln, Sachsen, Germany",
        "email": "radio@rsa-sachsen.de",
        "country": "Germany"
    },
    {
        "station": "Radio Salentina",
        "city": "Martano, LE, Italy",
        "email": "live@radiosalentina.it",
        "country": "Italy"
    },
    {
        "station": "Radio M P A",
        "city": "Macchia, Italy",
        "email": "radiompa@radiompa.it",
        "country": "Italy"
    },
    {
        "station": "Radio Del Golfo",
        "city": "Porto Torres, Italy",
        "email": "info@radiodelgolfo.net",
        "country": "Italy"
    },
    {
        "station": "Radio Zvezda",
        "city": "Kyzyl, Tuva Republic, Russia",
        "email": "mail@radiozvezda.ru",
        "country": "Russia"
    },
    {
        "station": "Russkoe Radio",
        "city": "Uray, Khanty-Mansi Autonomous Okrug, Russia",
        "email": "rmgsupport@gmail.com",
        "country": "Russia"
    },
    {
        "station": "Radio Grüne Welle",
        "city": "Bolzano, Italy",
        "email": "info@rgw.it",
        "country": "Italy"
    },
    {
        "station": "Radio Kiss Kiss",
        "city": "Aosta, VAL, Italy",
        "email": "info@kisskiss.it",
        "country": "Italy"
    },
    {
        "station": "Radio Cuore",
        "city": "Turin, Piemonte, Italy",
        "email": "cuore@radiocuore.it",
        "country": "Italy"
    },
    {
        "station": "Radio Nordés (Cadena SER)",
        "city": "Vimianzo, Spain",
        "email": "sernordes@radiocoruna.es",
        "country": "Spain"
    },
    {
        "station": "Radio 2000",
        "city": "Passarella, Italy",
        "email": "info@radio2000.it",
        "country": "Italy"
    },
    {
        "station": "Radio Panda",
        "city": "Garbagnate Milanese, MI, Italy",
        "email": "radio@radiopanda.it",
        "country": "Italy"
    },