[{
    "city": "Bydgoszcz, Poland",
    "coords": {
        "lat": "53.133",
        "lng": "18.028"
    }
}, {
    "city": "Rethymno, Greece",
    "coords": {
        "lat": "35.364",
        "lng": "24.471"
    }
}, {
    "city": "Bydgoszcz, Poland",
    "coords": {
        "lat": "53.133",
        "lng": "18.028"
    }
}, {
    "city": "Chania, Greece",
    "coords": {
        "lat": "35.504",
        "lng": "24.017"
    }
}, {
    "city": "Zagreb, Croatia",
    "coords": {
        "lat": "45.802",
        "lng": "15.947"
    }
}, {
    "city": "Binche, Belgium",
    "coords": {
        "lat": "50.415",
        "lng": "4.179"
    }
}, {
    "city": "Corfu, Greece",
    "coords": {
        "lat": "39.615",
        "lng": "19.909"
    }
}, {
    "city": "Daugavpils, Latvia",
    "coords": {
        "lat": "55.856",
        "lng": "26.557"
    }
}, {
    "city": "Jirnsum, Netherlands",
    "coords": {
        "lat": "53.082",
        "lng": "5.792"
    }
}, {
    "city": "Chania, Greece",
    "coords": {
        "lat": "35.504",
        "lng": "24.017"
    }
}, {
    "city": "Lillehammer, Norway",
    "coords": {
        "lat": "61.1",
        "lng": "10.485"
    }
}, {
    "city": "Gotse Delchev, Bulgaria",
    "coords": {
        "lat": "41.577",
        "lng": "23.745"
    }
}, {
    "city": "Rzeszów, Poland",
    "coords": {
        "lat": "50.023",
        "lng": "22.017"
    }
}, {
    "city": "Wierden, Netherlands",
    "coords": {
        "lat": "52.365",
        "lng": "6.595"
    }
}, {
    "city": "Bydgoszcz, Poland",
    "coords": {
        "lat": "53.133",
        "lng": "18.028"
    }
}, {
    "city": "Tammela, Finland",
    "coords": {
        "lat": "60.808",
        "lng": "23.795"
    }
}, {
    "city": "Patras, Greece",
    "coords": {
        "lat": "38.224",
        "lng": "21.735"
    }
}, {
    "city": "Ostrava, Czech Republic",
    "coords": {
        "lat": "49.839",
        "lng": "18.288"
    }
}, {
    "city": "Jirnsum, Netherlands",
    "coords": {
        "lat": "53.082",
        "lng": "5.792"
    }
}, {
    "city": "Bydgoszcz, Poland",
    "coords": {
        "lat": "53.133",
        "lng": "18.028"
    }
}, {
    "city": "Zagreb, Croatia",
    "coords": {
        "lat": "45.802",
        "lng": "15.947"
    }
}, {
    "city": "Haaksbergen, Netherlands",
    "coords": {
        "lat": "52.167",
        "lng": "6.749"
    }
}, {
    "city": "Chania, Greece",
    "coords": {
        "lat": "35.504",
        "lng": "24.017"
    }
}, {
    "city": "Chania, Greece",
    "coords": {
        "lat": "35.504",
        "lng": "24.017"
    }
}, {
    "city": "Patras, Greece",
    "coords": {
        "lat": "38.224",
        "lng": "21.735"
    }
}, {
    "city": "Kuopio, Finland",
    "coords": {
        "lat": "62.906",
        "lng": "27.685"
    }
}, {
    "city": "København, Denmark",
    "coords": {
        "lat": "55.713",
        "lng": "12.535"
    }
}, {
    "city": "Kaunas, Lithuania",
    "coords": {
        "lat": "54.895",
        "lng": "23.91"
    }
}, {
    "city": "Nijmegen, Netherlands",
    "coords": {
        "lat": "51.832",
        "lng": "5.804"
    }
}, {
    "city": "Minsk, Belarus",
    "coords": {
        "lat": "53.883",
        "lng": "27.504"
    }
}, {
    "city": "Polten, Niederosterreich, Austria",
    "coords": {
        "lat": "48.222",
        "lng": "15.639"
    }
}, {
    "city": "Łódź, Poland",
    "coords": {
        "lat": "51.788",
        "lng": "19.468"
    }
}, {
    "city": "Chios, Greece",
    "coords": {
        "lat": "38.374",
        "lng": "26.133"
    }
}, {
    "city": "Vennesla, Norway",
    "coords": {
        "lat": "58.268",
        "lng": "7.96"
    }
}, {
    "city": "Minsk, Belarus",
    "coords": {
        "lat": "53.883",
        "lng": "27.504"
    }
}, {
    "city": "Rzeszów, Poland",
    "coords": {
        "lat": "50.023",
        "lng": "22.017"
    }
}, {
    "city": "Shumen, Bulgaria",
    "coords": {
        "lat": "43.273",
        "lng": "26.945"
    }
}, {
    "city": "Rousse, Bulgaria",
    "coords": {
        "lat": "43.781",
        "lng": "26.019"
    }
}, {
    "city": "Prilep, Macedonia",
    "coords": {
        "lat": "41.348",
        "lng": "21.556"
    }
}, {
    "city": "Hulsberg, Netherlands",
    "coords": {
        "lat": "50.89",
        "lng": "5.861"
    }
}, {
    "city": "Helsinki, Finland",
    "coords": {
        "lat": "60.208",
        "lng": "24.899"
    }
}, {
    "city": "Nijmegen, Netherlands",
    "coords": {
        "lat": "51.832",
        "lng": "5.804"
    }
}, {
    "city": "Minsk, Belarus",
    "coords": {
        "lat": "53.883",
        "lng": "27.504"
    }
}, {
    "city": "København, Denmark",
    "coords": {
        "lat": "55.713",
        "lng": "12.535"
    }
}, {
    "city": "Rousse, Bulgaria",
    "coords": {
        "lat": "43.781",
        "lng": "26.019"
    }
}, {
    "city": "Chios, Greece",
    "coords": {
        "lat": "38.374",
        "lng": "26.133"
    }
}, {
    "city": "Saalfelden am Steinernen Meer, Austria",
    "coords": {
        "lat": "47.428",
        "lng": "12.845"
    }
}, {
    "city": "Patras, Greece",
    "coords": {
        "lat": "38.224",
        "lng": "21.735"
    }
}, {
    "city": "Helsinki, Finland",
    "coords": {
        "lat": "60.208",
        "lng": "24.899"
    }
}, {
    "city": "Minsk, Belarus",
    "coords": {
        "lat": "53.883",
        "lng": "27.504"
    }
}, {
    "city": "Strumica, Macedonia",
    "coords": {
        "lat": "41.429",
        "lng": "22.649"
    }
}, {
    "city": "Hilversum, Netherlands",
    "coords": {
        "lat": "52.212",
        "lng": "5.178"
    }
}, {
    "city": "Shumen, Bulgaria",
    "coords": {
        "lat": "43.273",
        "lng": "26.945"
    }
}, {
    "city": "Kalamata, Greece",
    "coords": {
        "lat": "37.028",
        "lng": "22.112"
    }
}, {
    "city": "Białystok, Poland",
    "coords": {
        "lat": "53.11",
        "lng": "23.134"
    }
}, {
    "city": "Kaunas, Lithuania",
    "coords": {
        "lat": "54.895",
        "lng": "23.91"
    }
}, {
    "city": "Kardla, Estonia",
    "coords": {
        "lat": "58.999",
        "lng": "22.741"
    }
}, {
    "city": "Corfu, Greece",
    "coords": {
        "lat": "39.615",
        "lng": "19.909"
    }
}, {
    "city": "Brest, Belarus",
    "coords": {
        "lat": "52.093",
        "lng": "23.733"
    }
}, {
    "city": "Mijdrecht, Netherlands",
    "coords": {
        "lat": "52.206",
        "lng": "4.862"
    }
}, {
    "city": "Vaduz, Liechtenstein",
    "coords": {
        "lat": "47.148",
        "lng": "9.524"
    }
}, {
    "city": "Velsen, Netherlands",
    "coords": {
        "lat": "52.46",
        "lng": "4.649"
    }
}, {
    "city": "Patras, Greece",
    "coords": {
        "lat": "38.224",
        "lng": "21.735"
    }
}, {
    "city": "Groningen, Netherlands",
    "coords": {
        "lat": "53.249",
        "lng": "6.582"
    }
}, {
    "city": "Bedum, Netherlands",
    "coords": {
        "lat": "53.297",
        "lng": "6.596"
    }
}, {
    "city": "Liberec, Czech Republic",
    "coords": {
        "lat": "50.742",
        "lng": "15.081"
    }
}, {
    "city": "Sarajevo, Bosnia and Herzegovina",
    "coords": {
        "lat": "43.859",
        "lng": "18.436"
    }
}, {
    "city": "Varna, Bulgaria",
    "coords": {
        "lat": "43.217",
        "lng": "27.917"
    }
}, {
    "city": "Joutseno, Finland",
    "coords": {
        "lat": "61.121",
        "lng": "28.503"
    }
}, {
    "city": "Melhus, Norway",
    "coords": {
        "lat": "63.286",
        "lng": "10.271"
    }
}, {
    "city": "Podgorica, Montenegro",
    "coords": {
        "lat": "42.435",
        "lng": "19.264"
    }
}, {
    "city": "Tirana, Albania",
    "coords": {
        "lat": "41.322",
        "lng": "19.825"
    }
}, {
    "city": "Uitgeest, Netherlands",
    "coords": {
        "lat": "52.53",
        "lng": "4.709"
    }
}, {
    "city": "Corinth, Greece",
    "coords": {
        "lat": "37.936",
        "lng": "22.921"
    }
}, {
    "city": "Baku, Azerbaijan",
    "coords": {
        "lat": "40.411",
        "lng": "49.872"
    }
}, {
    "city": "Rotterdam, Netherlands",
    "coords": {
        "lat": "51.916",
        "lng": "4.458"
    }
}, {
    "city": "Imst, Austria",
    "coords": {
        "lat": "47.217",
        "lng": "10.736"
    }
}, {
    "city": "Fjerritslev, Denmark",
    "coords": {
        "lat": "57.088",
        "lng": "9.267"
    }
}, {
    "city": "Innsbruck, Austria",
    "coords": {
        "lat": "47.265",
        "lng": "11.349"
    }
}, {
    "city": "Vammala, Finland",
    "coords": {
        "lat": "61.337",
        "lng": "22.919"
    }
}, {
    "city": "Chios, Greece",
    "coords": {
        "lat": "38.374",
        "lng": "26.133"
    }
}, {
    "city": "Corinth, Greece",
    "coords": {
        "lat": "37.936",
        "lng": "22.921"
    }
}, {
    "city": "Tournai, Belgium",
    "coords": {
        "lat": "50.609",
        "lng": "3.392"
    }
}, {
    "city": "Chania, Greece",
    "coords": {
        "lat": "35.504",
        "lng": "24.017"
    }
}, {
    "city": "Valletta, Malta",
    "coords": {
        "lat": "35.894",
        "lng": "14.512"
    }
}, {
    "city": "Grodno, Belarus",
    "coords": {
        "lat": "53.672",
        "lng": "23.841"
    }
}, {
    "city": "Meulebeke, Belgium",
    "coords": {
        "lat": "50.959",
        "lng": "3.3"
    }
}, {
    "city": "Helsinki, Finland",
    "coords": {
        "lat": "60.208",
        "lng": "24.899"
    }
}, {
    "city": "Nachod, Czech Republic",
    "coords": {
        "lat": "50.426",
        "lng": "16.171"
    }
}, {
    "city": "Cakovec, Croatia",
    "coords": {
        "lat": "46.391",
        "lng": "16.434"
    }
}, {
    "city": "Kosove, Albania",
    "coords": {
        "lat": "40.304",
        "lng": "20.394"
    }
}, {
    "city": "Aalborg, Denmark",
    "coords": {
        "lat": "57.012",
        "lng": "9.926"
    }
}, {
    "city": "Pyrgos, Greece",
    "coords": {
        "lat": "37.67",
        "lng": "21.442"
    }
}, {
    "city": "Anna, Estonia",
    "coords": {
        "lat": "59.008",
        "lng": "25.596"
    }
}, {
    "city": "Helsinki, Finland",
    "coords": {
        "lat": "60.208",
        "lng": "24.899"
    }
}, {
    "city": "Borculo, Netherlands",
    "coords": {
        "lat": "52.117",
        "lng": "6.523"
    }
}, {
    "city": "Nicosia, Cyprus",
    "coords": {
        "lat": "35.167",
        "lng": "33.367"
    }
}, {
    "city": "Antwerp, Belgium",
    "coords": {
        "lat": "51.235",
        "lng": "4.424"
    }
}, {
    "city": "Alexandroupoli, Greece",
    "coords": {
        "lat": "40.847",
        "lng": "25.881"
    }
}, {
    "city": "Brussels, Belgium",
    "coords": {
        "lat": "50.843",
        "lng": "4.378"
    }
}, {
    "city": "København, Denmark",
    "coords": {
        "lat": "55.713",
        "lng": "12.535"
    }
}, {
    "city": "Białystok, Poland",
    "coords": {
        "lat": "53.11",
        "lng": "23.134"
    }
}, {
    "city": "Graz, Austria",
    "coords": {
        "lat": "47.056",
        "lng": "15.417"
    }
}, {
    "city": "Kraków, Poland",
    "coords": {
        "lat": "50.073",
        "lng": "20.036"
    }
}, {
    "city": "Kaunas, Lithuania",
    "coords": {
        "lat": "54.895",
        "lng": "23.91"
    }
}, {
    "city": "Kaunas, Lithuania",
    "coords": {
        "lat": "54.895",
        "lng": "23.91"
    }
}, {
    "city": "Sippola, Finland",
    "coords": {
        "lat": "60.754",
        "lng": "27.021"
    }
}, {
    "city": "Nicosia, Cyprus",
    "coords": {
        "lat": "35.167",
        "lng": "33.367"
    }
}, {
    "city": "Bregenz, Austria",
    "coords": {
        "lat": "47.505",
        "lng": "9.758"
    }
}, {
    "city": "Orestias, Greece",
    "coords": {
        "lat": "41.503",
        "lng": "26.532"
    }
}, {
    "city": "Kakanj, Bosnia and Herzegovina",
    "coords": {
        "lat": "44.124",
        "lng": "18.113"
    }
}, {
    "city": "Dornbirn, Austria",
    "coords": {
        "lat": "47.412",
        "lng": "9.736"
    }
}, {
    "city": "Praha, Czech Republic",
    "coords": {
        "lat": "50.127",
        "lng": "14.457"
    }
}, {
    "city": "Gdańsk, Poland",
    "coords": {
        "lat": "54.329",
        "lng": "18.625"
    }
}, {
    "city": "Nachod, Czech Republic",
    "coords": {
        "lat": "50.426",
        "lng": "16.171"
    }
}, {
    "city": "Hämeenlinna, Finland",
    "coords": {
        "lat": "60.976",
        "lng": "24.472"
    }
}, {
    "city": "Bergen, Norway",
    "coords": {
        "lat": "60.393",
        "lng": "5.329"
    }
}, {
    "city": "Burgas, Bulgaria",
    "coords": {
        "lat": "42.502",
        "lng": "27.46"
    }
}, {
    "city": "Vilnius, Lithuania",
    "coords": {
        "lat": "54.691",
        "lng": "25.27"
    }
}, {
    "city": "Groningen, Netherlands",
    "coords": {
        "lat": "53.249",
        "lng": "6.582"
    }
}, {
    "city": "Dudelange, Luxembourg",
    "coords": {
        "lat": "49.482",
        "lng": "6.08"
    }
}, {
    "city": "Rovaniemi, Finland",
    "coords": {
        "lat": "66.497",
        "lng": "25.73"
    }
}, {
    "city": "Lopik, Netherlands",
    "coords": {
        "lat": "51.972",
        "lng": "4.95"
    }
}, {
    "city": "Leersum, Netherlands",
    "coords": {
        "lat": "52.011",
        "lng": "5.432"
    }
}, {
    "city": "Arnhem, Netherlands",
    "coords": {
        "lat": "51.953",
        "lng": "5.853"
    }
}, {
    "city": "Den Helder, Netherlands",
    "coords": {
        "lat": "52.939",
        "lng": "4.78"
    }
}, {
    "city": "Kirchdorf an der Krems, Austria",
    "coords": {
        "lat": "47.904",
        "lng": "14.119"
    }
}, {
    "city": "Smilde, Netherlands",
    "coords": {
        "lat": "52.943",
        "lng": "6.439"
    }
}, {
    "city": "Malden, Netherlands",
    "coords": {
        "lat": "51.782",
        "lng": "5.852"
    }
}, {
    "city": "Lohja, Finland",
    "coords": {
        "lat": "60.25",
        "lng": "24.083"
    }
}, {
    "city": "DRAMMEN, Norway",
    "coords": {
        "lat": "59.743",
        "lng": "10.216"
    }
}, {
    "city": "Vriezenveen, Netherlands",
    "coords": {
        "lat": "52.405",
        "lng": "6.606"
    }
}, {
    "city": "Rovaniemi, Finland",
    "coords": {
        "lat": "66.497",
        "lng": "25.73"
    }
}, {
    "city": "Hodonín, Czech Republic",
    "coords": {
        "lat": "48.872",
        "lng": "17.118"
    }
}, {
    "city": "Nijmegen, Netherlands",
    "coords": {
        "lat": "51.832",
        "lng": "5.804"
    }
}, {
    "city": "Hodonín, Czech Republic",
    "coords": {
        "lat": "48.872",
        "lng": "17.118"
    }
}, {
    "city": "Varaždin, Croatia",
    "coords": {
        "lat": "46.306",
        "lng": "16.326"
    }
}, {
    "city": "Wielun, Poland",
    "coords": {
        "lat": "51.219",
        "lng": "18.569"
    }
}, {
    "city": "Larnaca, Cyprus",
    "coords": {
        "lat": "34.931",
        "lng": "33.633"
    }
}, {
    "city": "Klatovy, Czech Republic",
    "coords": {
        "lat": "49.391",
        "lng": "13.307"
    }
}, {
    "city": "Tilburg, Netherlands",
    "coords": {
        "lat": "51.549",
        "lng": "5.065"
    }
}, {
    "city": "Brønderslev, Denmark",
    "coords": {
        "lat": "57.269",
        "lng": "9.953"
    }
}, {
    "city": "Klaipeda, Lithuania",
    "coords": {
        "lat": "55.719",
        "lng": "21.125"
    }
}, {
    "city": "Deventer, Netherlands",
    "coords": {
        "lat": "52.268",
        "lng": "6.158"
    }
}, {
    "city": "Brussels, Belgium",
    "coords": {
        "lat": "50.843",
        "lng": "4.378"
    }
}, {
    "city": "Ierapetra, Greece",
    "coords": {
        "lat": "35.015",
        "lng": "25.739"
    }
}, {
    "city": "Lappeenranta, Finland",
    "coords": {
        "lat": "61.055",
        "lng": "28.184"
    }
}, {
    "city": "Katowice, Poland",
    "coords": {
        "lat": "50.256",
        "lng": "19.031"
    }
}, {
    "city": "Rovaniemi, Finland",
    "coords": {
        "lat": "66.497",
        "lng": "25.73"
    }
}, {
    "city": "Turku, Finland",
    "coords": {
        "lat": "60.454",
        "lng": "22.267"
    }
}, {
    "city": "Kuopio, Finland",
    "coords": {
        "lat": "62.906",
        "lng": "27.685"
    }
}, {
    "city": "Groningen, Netherlands",
    "coords": {
        "lat": "53.249",
        "lng": "6.582"
    }
}, {
    "city": "Pernå, Finland",
    "coords": {
        "lat": "60.446",
        "lng": "26.034"
    }
}, {
    "city": "Białystok, Poland",
    "coords": {
        "lat": "53.11",
        "lng": "23.134"
    }
}, {
    "city": "Cesky Krumlov, Czech Republic",
    "coords": {
        "lat": "48.797",
        "lng": "14.306"
    }
}, {
    "city": "Kravarsko, Croatia",
    "coords": {
        "lat": "45.585",
        "lng": "16.052"
    }
}, {
    "city": "Emmen, Netherlands",
    "coords": {
        "lat": "52.751",
        "lng": "6.886"
    }
}, {
    "city": "Tallinn, Estonia",
    "coords": {
        "lat": "59.437",
        "lng": "24.754"
    }
}, {
    "city": "Lublin, Poland",
    "coords": {
        "lat": "51.253",
        "lng": "22.552"
    }
}, {
    "city": "Kastoria, Greece",
    "coords": {
        "lat": "40.52",
        "lng": "21.266"
    }
}, {
    "city": "Warszawa, Poland",
    "coords": {
        "lat": "52.229",
        "lng": "21.006"
    }
}, {
    "city": "Jyväskylä, Finland",
    "coords": {
        "lat": "62.213",
        "lng": "25.718"
    }
}, {
    "city": "Praha, Czech Republic",
    "coords": {
        "lat": "50.127",
        "lng": "14.457"
    }
}, {
    "city": "Linz, Oberosterreich, Austria",
    "coords": {
        "lat": "48.319",
        "lng": "14.285"
    }
}, {
    "city": "Hodonín, Czech Republic",
    "coords": {
        "lat": "48.872",
        "lng": "17.118"
    }
}, {
    "city": "Nicosia, Cyprus",
    "coords": {
        "lat": "35.167",
        "lng": "33.367"
    }
}, {
    "city": "Klaksvík, Faroe Islands",
    "coords": {
        "lat": "62.224",
        "lng": "-6.579"
    }
}, {
    "city": "Nicosia, Cyprus",
    "coords": {
        "lat": "35.167",
        "lng": "33.367"
    }
}, {
    "city": "Oslo, Norway",
    "coords": {
        "lat": "59.912",
        "lng": "10.75"
    }
}, {
    "city": "Minsk, Belarus",
    "coords": {
        "lat": "53.883",
        "lng": "27.504"
    }
}, {
    "city": "Nicosia, Cyprus",
    "coords": {
        "lat": "35.167",
        "lng": "33.367"
    }
}, {
    "city": "Herceg-Novi, Montenegro",
    "coords": {
        "lat": "42.455",
        "lng": "18.562"
    }
}, {
    "city": "Tallinn, Estonia",
    "coords": {
        "lat": "59.437",
        "lng": "24.754"
    }
}, {
    "city": "Ioannina, Greece",
    "coords": {
        "lat": "39.647",
        "lng": "20.841"
    }
}, {
    "city": "Zenica, Bosnia and Herzegovina",
    "coords": {
        "lat": "44.195",
        "lng": "17.937"
    }
}, {
    "city": "Tallinn, Estonia",
    "coords": {
        "lat": "59.437",
        "lng": "24.754"
    }
}, {
    "city": "Rotterdam, Netherlands",
    "coords": {
        "lat": "51.916",
        "lng": "4.458"
    }
}, {
    "city": "Łódź, Poland",
    "coords": {
        "lat": "51.788",
        "lng": "19.468"
    }
}, {
    "city": "Komotini, Greece",
    "coords": {
        "lat": "41.116",
        "lng": "25.394"
    }
}, {
    "city": "Valgjarve, Voru, Estonia",
    "coords": {
        "lat": "57.749",
        "lng": "26.926"
    }
}, {
    "city": "Kielce, Poland",
    "coords": {
        "lat": "50.892",
        "lng": "20.659"
    }
}, {
    "city": "Pernik, Bulgaria",
    "coords": {
        "lat": "42.61",
        "lng": "23.037"
    }
}, {
    "city": "Paramythia, Greece",
    "coords": {
        "lat": "39.467",
        "lng": "20.51"
    }
}, {
    "city": "Poznan, Poland",
    "coords": {
        "lat": "52.356",
        "lng": "16.856"
    }
}, {
    "city": "Gomel, Belarus",
    "coords": {
        "lat": "52.424",
        "lng": "31.014"
    }
}, {
    "city": "Písek, Czech Republic",
    "coords": {
        "lat": "49.304",
        "lng": "14.141"
    }
}, {
    "city": "Hilversum, Netherlands",
    "coords": {
        "lat": "52.212",
        "lng": "5.178"
    }
}, {
    "city": "Jirnsum, Netherlands",
    "coords": {
        "lat": "53.082",
        "lng": "5.792"
    }
}, {
    "city": "Rhodes, Greece",
    "coords": {
        "lat": "36.167",
        "lng": "28"
    }
}, {
    "city": "Pärnu, Parnu, Estonia",
    "coords": {
        "lat": "58.382",
        "lng": "24.506"
    }
}, {
    "city": "Leuven, Belgium",
    "coords": {
        "lat": "50.886",
        "lng": "4.708"
    }
}, {
    "city": "Kavarna, Bulgaria",
    "coords": {
        "lat": "43.433",
        "lng": "28.333"
    }
}, {
    "city": "Oosterhout, Netherlands",
    "coords": {
        "lat": "51.649",
        "lng": "4.867"
    }
}, {
    "city": "Rotterdam, Netherlands",
    "coords": {
        "lat": "51.916",
        "lng": "4.458"
    }
}, {
    "city": "Hilversum, Netherlands",
    "coords": {
        "lat": "52.212",
        "lng": "5.178"
    }
}, {
    "city": "Eupen, Belgium",
    "coords": {
        "lat": "50.624",
        "lng": "6.032"
    }
}, {
    "city": "Oslo, Norway",
    "coords": {
        "lat": "59.912",
        "lng": "10.75"
    }
}, {
    "city": "city",
    "coords": {
        "lat": "51.508",
        "lng": "-0.126"
    }
}, {
    "city": "Bansko, Bulgaria",
    "coords": {
        "lat": "41.836",
        "lng": "23.471"
    }
}, {
    "city": "Enschede, Netherlands",
    "coords": {
        "lat": "52.242",
        "lng": "6.873"
    }
}, {
    "city": "Przemysl, Poland",
    "coords": {
        "lat": "49.783",
        "lng": "22.77"
    }
}, {
    "city": "Amsterdam, Netherlands",
    "coords": {
        "lat": "52.331",
        "lng": "4.867"
    }
}, {
    "city": "Hank, Netherlands",
    "coords": {
        "lat": "51.734",
        "lng": "4.895"
    }
}, {
    "city": "Tartu, Estonia",
    "coords": {
        "lat": "58.376",
        "lng": "26.726"
    }
}, {
    "city": "Blagoevgrad, Bulgaria",
    "coords": {
        "lat": "42.016",
        "lng": "23.081"
    }
}, {
    "city": "Tbilisi, Georgia",
    "coords": {
        "lat": "41.726",
        "lng": "44.793"
    }
}, {
    "city": "Woerden, Netherlands",
    "coords": {
        "lat": "52.081",
        "lng": "4.879"
    }
}, {
    "city": "Visoko, Bosnia and Herzegovina",
    "coords": {
        "lat": "43.987",
        "lng": "18.181"
    }
}, {
    "city": "Bruxelles, Belgium",
    "coords": {
        "lat": "50.843",
        "lng": "4.378"
    }
}, {
    "city": "Eys, Netherlands",
    "coords": {
        "lat": "50.825",
        "lng": "5.934"
    }
}, {
    "city": "Elst, Netherlands",
    "coords": {
        "lat": "51.917",
        "lng": "5.848"
    }
}, {
    "city": "Copenhagen, Denmark",
    "coords": {
        "lat": "55.713",
        "lng": "12.535"
    }
}, {
    "city": "Riga, Latvia",
    "coords": {
        "lat": "57.028",
        "lng": "24.045"
    }
}, {
    "city": "Livadia, Greece",
    "coords": {
        "lat": "38.439",
        "lng": "22.88"
    }
}, {
    "city": "Rovaniemi, Finland",
    "coords": {
        "lat": "66.497",
        "lng": "25.73"
    }
}, {
    "city": "Nuland, Netherlands",
    "coords": {
        "lat": "51.728",
        "lng": "5.433"
    }
}, {
    "city": "Neerpelt, Belgium",
    "coords": {
        "lat": "51.229",
        "lng": "5.442"
    }
}, {
    "city": "Woudenberg, Netherlands",
    "coords": {
        "lat": "52.085",
        "lng": "5.41"
    }
}, {
    "city": "Otepää, Estonia",
    "coords": {
        "lat": "58.06",
        "lng": "26.494"
    }
}, {
    "city": "Riga, Latvia",
    "coords": {
        "lat": "57.028",
        "lng": "24.045"
    }
}, {
    "city": "Pernik, Bulgaria",
    "coords": {
        "lat": "42.61",
        "lng": "23.037"
    }
}, {
    "city": "Brussels, Belgium",
    "coords": {
        "lat": "50.843",
        "lng": "4.378"
    }
}, {
    "city": "Kraków, Poland",
    "coords": {
        "lat": "50.073",
        "lng": "20.036"
    }
}, {
    "city": "Paola, Malta",
    "coords": {
        "lat": "35.876",
        "lng": "14.503"
    }
}, {
    "city": "Gliwice, Poland",
    "coords": {
        "lat": "50.293",
        "lng": "18.668"
    }
}, {
    "city": "Czestochowa, Poland",
    "coords": {
        "lat": "50.816",
        "lng": "19.094"
    }
}, {
    "city": "Legnica, Poland",
    "coords": {
        "lat": "51.202",
        "lng": "16.185"
    }
}, {
    "city": "Nicosia, Cyprus",
    "coords": {
        "lat": "35.167",
        "lng": "33.367"
    }
}, {
    "city": "Sveti Ivan Zelina, Croatia",
    "coords": {
        "lat": "45.969",
        "lng": "16.253"
    }
}, {
    "city": "Ringsted, Denmark",
    "coords": {
        "lat": "55.443",
        "lng": "11.79"
    }
}, {
    "city": "Rapla, Estonia",
    "coords": {
        "lat": "59.002",
        "lng": "24.789"
    }
}, {
    "city": "Trondheim, Norway",
    "coords": {
        "lat": "63.371",
        "lng": "10.362"
    }
}, {
    "city": "Mierlo, Netherlands",
    "coords": {
        "lat": "51.444",
        "lng": "5.62"
    }
}, {
    "city": "Bad Ischl, Austria",
    "coords": {
        "lat": "47.713",
        "lng": "13.618"
    }
}, {
    "city": "Tampere, Finland",
    "coords": {
        "lat": "61.498",
        "lng": "23.763"
    }
}, {
    "city": "Esch-sur-Alzette, Luxembourg",
    "coords": {
        "lat": "49.497",
        "lng": "5.981"
    }
}, {
    "city": "Tirana, Albania",
    "coords": {
        "lat": "41.322",
        "lng": "19.825"
    }
}, {
    "city": "Hengelo, Netherlands",
    "coords": {
        "lat": "52.276",
        "lng": "6.825"
    }
}, {
    "city": "Volos, Greece",
    "coords": {
        "lat": "39.364",
        "lng": "22.929"
    }
}, {
    "city": "Den Helder, Netherlands",
    "coords": {
        "lat": "52.939",
        "lng": "4.78"
    }
}, {
    "city": "Warszawa, Poland",
    "coords": {
        "lat": "52.229",
        "lng": "21.006"
    }
}, {
    "city": "Slunj, Croatia",
    "coords": {
        "lat": "45.117",
        "lng": "15.585"
    }
}, {
    "city": "Tilburg, Netherlands",
    "coords": {
        "lat": "51.549",
        "lng": "5.065"
    }
}, {
    "city": "Gdańsk, Poland",
    "coords": {
        "lat": "54.329",
        "lng": "18.625"
    }
}, {
    "city": "Hundested, Denmark",
    "coords": {
        "lat": "55.959",
        "lng": "11.853"
    }
}, {
    "city": "Wien, Austria",
    "coords": {
        "lat": "48.208",
        "lng": "16.378"
    }
}, {
    "city": "Mahilyow, Belarus",
    "coords": {
        "lat": "53.908",
        "lng": "30.346"
    }
}, {
    "city": "Rzeszow, Poland",
    "coords": {
        "lat": "50.023",
        "lng": "22.017"
    }
}, {
    "city": "Nicosia, Cyprus",
    "coords": {
        "lat": "35.167",
        "lng": "33.367"
    }
}, {
    "city": "Ljubic, Bosnia and Herzegovina",
    "coords": {
        "lat": "44.182",
        "lng": "17.808"
    }
}, {
    "city": "Pandrup, Denmark",
    "coords": {
        "lat": "57.224",
        "lng": "9.677"
    }
}, {
    "city": "Vitez, Bosnia and Herzegovina",
    "coords": {
        "lat": "44.154",
        "lng": "17.783"
    }
}, {
    "city": "Medemblik, Netherlands",
    "coords": {
        "lat": "52.774",
        "lng": "5.107"
    }
}, {
    "city": "Yerevan, Armenia",
    "coords": {
        "lat": "40.207",
        "lng": "44.556"
    }
}, {
    "city": "Vilnius, Lithuania",
    "coords": {
        "lat": "54.691",
        "lng": "25.27"
    }
}, {
    "city": "Beusichem, Netherlands",
    "coords": {
        "lat": "51.95",
        "lng": "5.29"
    }
}, {
    "city": "Oslo, Norway",
    "coords": {
        "lat": "59.912",
        "lng": "10.75"
    }
}, {
    "city": "Philippine, Netherlands",
    "coords": {
        "lat": "51.281",
        "lng": "3.761"
    }
}, {
    "city": "Oslo, Norway",
    "coords": {
        "lat": "59.912",
        "lng": "10.75"
    }
}, {
    "city": "Vilnius, Lithuania",
    "coords": {
        "lat": "54.691",
        "lng": "25.27"
    }
}, {
    "city": "Tallinn, Estonia",
    "coords": {
        "lat": "59.437",
        "lng": "24.754"
    }
}, {
    "city": "Namur, Belgium",
    "coords": {
        "lat": "50.468",
        "lng": "4.878"
    }
}, {
    "city": "Huissen, Netherlands",
    "coords": {
        "lat": "51.94",
        "lng": "5.94"
    }
}, {
    "city": "København, Denmark",
    "coords": {
        "lat": "55.713",
        "lng": "12.535"
    }
}, {
    "city": "Liberec, Czech Republic",
    "coords": {
        "lat": "50.742",
        "lng": "15.081"
    }
}, {
    "city": "Stavanger, Rogaland County, Norway",
    "coords": {
        "lat": "62.906",
        "lng": "27.685"
    }
}, {
    "city": "Kuopio, Finland",
    "coords": {
        "lat": "62.906",
        "lng": "27.685"
    }
}, {
    "city": "Faxe, Denmark",
    "coords": {
        "lat": "55.246",
        "lng": "12.117"
    }
}, {
    "city": "Sarajevo, Bosnia and Herzegovina",
    "coords": {
        "lat": "43.859",
        "lng": "18.436"
    }
}, {
    "city": "Tampere, Finland",
    "coords": {
        "lat": "61.498",
        "lng": "23.763"
    }
}, {
    "city": "Xanthi, Greece",
    "coords": {
        "lat": "41.141",
        "lng": "24.887"
    }
}, {
    "city": "Rokiškis, Lithuania",
    "coords": {
        "lat": "55.959",
        "lng": "25.584"
    }
}, {
    "city": "Warszawa, Poland",
    "coords": {
        "lat": "52.229",
        "lng": "21.006"
    }
}, {
    "city": "Steenwijk, Netherlands",
    "coords": {
        "lat": "52.788",
        "lng": "6.117"
    }
}, {
    "city": "Tampere, Finland",
    "coords": {
        "lat": "61.498",
        "lng": "23.763"
    }
}, {
    "city": "Nysa, Poland",
    "coords": {
        "lat": "50.486",
        "lng": "17.347"
    }
}, {
    "city": "Viljandi, Estonia",
    "coords": {
        "lat": "58.349",
        "lng": "25.582"
    }
}, {
    "city": "Meerssen, Netherlands",
    "coords": {
        "lat": "50.886",
        "lng": "5.757"
    }
}, {
    "city": "Lahti, Finland",
    "coords": {
        "lat": "60.983",
        "lng": "25.657"
    }
}, {
    "city": "Paide, Estonia",
    "coords": {
        "lat": "58.887",
        "lng": "25.563"
    }
}, {
    "city": "Haugesund, Norway",
    "coords": {
        "lat": "59.419",
        "lng": "5.277"
    }
}, {
    "city": "Juelsminde, Denmark",
    "coords": {
        "lat": "55.714",
        "lng": "10.014"
    }
}, {
    "city": "Eurajoki, Finland",
    "coords": {
        "lat": "61.203",
        "lng": "21.739"
    }
}, {
    "city": "Klagenfurt, Austria",
    "coords": {
        "lat": "46.64",
        "lng": "14.303"
    }
}, {
    "city": "Minsk, Belarus",
    "coords": {
        "lat": "53.883",
        "lng": "27.504"
    }
}, {
    "city": "Banja Luka, Bosnia and Herzegovina",
    "coords": {
        "lat": "44.774",
        "lng": "17.2"
    }
}, {
    "city": "Storsand, Troms, Norway",
    "coords": {
        "lat": "69.255",
        "lng": "19.966"
    }
}, {
    "city": "Zakynthos, Greece",
    "coords": {
        "lat": "37.777",
        "lng": "20.895"
    }
}, {
    "city": "Tallinn, Estonia",
    "coords": {
        "lat": "59.437",
        "lng": "24.754"
    }
}, {
    "city": "Karpenision, Greece",
    "coords": {
        "lat": "38.909",
        "lng": "21.795"
    }
}, {
    "city": "Bruxelles, Belgium",
    "coords": {
        "lat": "50.843",
        "lng": "4.378"
    }
}, {
    "city": "Smilde, Netherlands",
    "coords": {
        "lat": "52.943",
        "lng": "6.439"
    }
}, {
    "city": "Salzburg, Austria",
    "coords": {
        "lat": "47.785",
        "lng": "13.044"
    }
}, {
    "city": "Ede, Netherlands",
    "coords": {
        "lat": "52.034",
        "lng": "5.618"
    }
}, {
    "city": "Skopje, Macedonia",
    "coords": {
        "lat": "41.995",
        "lng": "21.43"
    }
}, {
    "city": "Biržai, Lithuania",
    "coords": {
        "lat": "56.184",
        "lng": "24.735"
    }
}, {
    "city": "Slupsk, Poland",
    "coords": {
        "lat": "54.469",
        "lng": "17.03"
    }
}, {
    "city": "Torshavn, Faroe Islands",
    "coords": {
        "lat": "62.021",
        "lng": "-6.77"
    }
}, {
    "city": "Puhja, Estonia",
    "coords": {
        "lat": "58.338",
        "lng": "26.311"
    }
}, {
    "city": "Zlatar, Croatia",
    "coords": {
        "lat": "46.076",
        "lng": "16.089"
    }
}, {
    "city": "Praha, Czech Republic",
    "coords": {
        "lat": "50.127",
        "lng": "14.457"
    }
}, {
    "city": "Rovaniemi, Finland",
    "coords": {
        "lat": "66.497",
        "lng": "25.73"
    }
}, {
    "city": "Wroclaw, Poland",
    "coords": {
        "lat": "51.111",
        "lng": "17.043"
    }
}, {
    "city": "Roskilde, Denmark",
    "coords": {
        "lat": "55.658",
        "lng": "12.107"
    }
}, {
    "city": "Baku, Azerbaijan",
    "coords": {
        "lat": "40.411",
        "lng": "49.872"
    }
}, {
    "city": "Helsinki, Finland",
    "coords": {
        "lat": "60.208",
        "lng": "24.899"
    }
}, {
    "city": "Blagoevgrad, Bulgaria",
    "coords": {
        "lat": "42.016",
        "lng": "23.081"
    }
}, {
    "city": "Brest, Belarus",
    "coords": {
        "lat": "52.093",
        "lng": "23.733"
    }
}, {
    "city": "Kabel, Netherlands",
    "coords": {
        "lat": "52.255",
        "lng": "4.652"
    }
}, {
    "city": "Silkeborg, Denmark",
    "coords": {
        "lat": "56.2",
        "lng": "9.574"
    }
}, {
    "city": "Elblag, Poland",
    "coords": {
        "lat": "54.179",
        "lng": "19.395"
    }
}, {
    "city": "Banja Luka, Bosnia and Herzegovina",
    "coords": {
        "lat": "44.774",
        "lng": "17.2"
    }
}, {
    "city": "Megen, Netherlands",
    "coords": {
        "lat": "51.822",
        "lng": "5.565"
    }
}, {
    "city": "Slavonski Brod, Croatia",
    "coords": {
        "lat": "45.177",
        "lng": "18.003"
    }
}, {
    "city": "Schwarzach im Pongau, Austria",
    "coords": {
        "lat": "47.319",
        "lng": "13.14"
    }
}, {
    "city": "Emmeloord, Netherlands",
    "coords": {
        "lat": "52.71",
        "lng": "5.751"
    }
}, {
    "city": "Delfzijl, Netherlands",
    "coords": {
        "lat": "53.345",
        "lng": "6.908"
    }
}, {
    "city": "Lovech, Bulgaria",
    "coords": {
        "lat": "43.132",
        "lng": "24.703"
    }
}, {
    "city": "Fgura, Malta",
    "coords": {
        "lat": "35.872",
        "lng": "14.524"
    }
}, {
    "city": "Xanthi, Greece",
    "coords": {
        "lat": "41.141",
        "lng": "24.887"
    }
}, {
    "city": "Rovinj, Croatia",
    "coords": {
        "lat": "45.083",
        "lng": "13.636"
    }
}, {
    "city": "Cetinje, Montenegro",
    "coords": {
        "lat": "42.384",
        "lng": "18.925"
    }
}, {
    "city": "Oulu, Finland",
    "coords": {
        "lat": "65.01",
        "lng": "25.473"
    }
}, {
    "city": "Bra, Belgium",
    "coords": {
        "lat": "50.323",
        "lng": "5.735"
    }
}, {
    "city": "Pleven, Bulgaria",
    "coords": {
        "lat": "43.406",
        "lng": "24.625"
    }
}, {
    "city": "Berghem, Netherlands",
    "coords": {
        "lat": "51.774",
        "lng": "5.566"
    }
}, {
    "city": "Turku, Finland",
    "coords": {
        "lat": "60.454",
        "lng": "22.267"
    }
}, {
    "city": "Kavala, Greece",
    "coords": {
        "lat": "40.941",
        "lng": "24.421"
    }
}, {
    "city": "Tuzla, Bosnia and Herzegovina",
    "coords": {
        "lat": "44.537",
        "lng": "18.696"
    }
}, {
    "city": "Espoo, Finland",
    "coords": {
        "lat": "60.207",
        "lng": "24.656"
    }
}, {
    "city": "Plovdiv, Bulgaria",
    "coords": {
        "lat": "42.136",
        "lng": "24.755"
    }
}, {
    "city": "Zeist, Netherlands",
    "coords": {
        "lat": "52.102",
        "lng": "5.241"
    }
}, {
    "city": "Amstelveen, Netherlands",
    "coords": {
        "lat": "52.296",
        "lng": "4.853"
    }
}, {
    "city": "Schijndel, Netherlands",
    "coords": {
        "lat": "51.613",
        "lng": "5.445"
    }
}, {
    "city": "Zadar, Croatia",
    "coords": {
        "lat": "44.124",
        "lng": "15.247"
    }
}, {
    "city": "Mažeikiai, Lithuania",
    "coords": {
        "lat": "56.309",
        "lng": "22.329"
    }
}, {
    "city": "Deinze, Belgium",
    "coords": {
        "lat": "50.989",
        "lng": "3.533"
    }
}, {
    "city": "Haarlem, Netherlands",
    "coords": {
        "lat": "52.366",
        "lng": "4.66"
    }
}, {
    "city": "Gorzow Slaski, Poland",
    "coords": {
        "lat": "51.028",
        "lng": "18.423"
    }
}, {
    "city": "Kuopio, Finland",
    "coords": {
        "lat": "62.906",
        "lng": "27.685"
    }
}, {
    "city": "Meulebeke, Belgium",
    "coords": {
        "lat": "50.959",
        "lng": "3.3"
    }
}, {
    "city": "Poznan, Poland",
    "coords": {
        "lat": "52.356",
        "lng": "16.856"
    }
}, {
    "city": "Weert, Netherlands",
    "coords": {
        "lat": "51.26",
        "lng": "5.685"
    }
}, {
    "city": "Zvornik, Bosnia and Herzegovina",
    "coords": {
        "lat": "44.39",
        "lng": "19.106"
    }
}, {
    "city": "Breda, Netherlands",
    "coords": {
        "lat": "51.586",
        "lng": "4.815"
    }
}, {
    "city": "Jyväskylä, Finland",
    "coords": {
        "lat": "62.213",
        "lng": "25.718"
    }
}, {
    "city": "Rijssen, Netherlands",
    "coords": {
        "lat": "52.307",
        "lng": "6.524"
    }
}, {
    "city": "Kocani, Macedonia",
    "coords": {
        "lat": "41.916",
        "lng": "22.413"
    }
}, {
    "city": "Aarhus, Denmark",
    "coords": {
        "lat": "56.185",
        "lng": "10.19"
    }
}, {
    "city": "Gdynia, Poland",
    "coords": {
        "lat": "54.52",
        "lng": "18.536"
    }
}, {
    "city": "Rijeka, Croatia",
    "coords": {
        "lat": "45.324",
        "lng": "14.45"
    }
}, {
    "city": "Podlasie, Poland",
    "coords": {
        "lat": "53.265",
        "lng": "22.929"
    }
}, {
    "city": "Salzburg, Austria",
    "coords": {
        "lat": "47.785",
        "lng": "13.044"
    }
}, {
    "city": "Den Burg, Netherlands",
    "coords": {
        "lat": "53.055",
        "lng": "4.792"
    }
}, {
    "city": "Geldrop, Netherlands",
    "coords": {
        "lat": "51.422",
        "lng": "5.561"
    }
}, {
    "city": "Koeru, Estonia",
    "coords": {
        "lat": "58.964",
        "lng": "26.025"
    }
}, {
    "city": "Nicosia, Cyprus",
    "coords": {
        "lat": "35.167",
        "lng": "33.367"
    }
}, {
    "city": "Ameide, Netherlands",
    "coords": {
        "lat": "51.957",
        "lng": "4.96"
    }
}, {
    "city": "Mostar, Bosnia and Herzegovina",
    "coords": {
        "lat": "43.347",
        "lng": "17.782"
    }
}, {
    "city": "Kyustendil, Bulgaria",
    "coords": {
        "lat": "42.284",
        "lng": "22.69"
    }
}, {
    "city": "Assen, Netherlands",
    "coords": {
        "lat": "52.998",
        "lng": "6.571"
    }
}, {
    "city": "Tetovo, Macedonia",
    "coords": {
        "lat": "42.009",
        "lng": "20.977"
    }
}, {
    "city": "Groningen, Netherlands",
    "coords": {
        "lat": "53.249",
        "lng": "6.582"
    }
}, {
    "city": "Porec, Croatia",
    "coords": {
        "lat": "45.231",
        "lng": "13.602"
    }
}, {
    "city": "Rechnitz, Austria",
    "coords": {
        "lat": "47.298",
        "lng": "16.439"
    }
}, {
    "city": "Schiedam, Netherlands",
    "coords": {
        "lat": "51.915",
        "lng": "4.415"
    }
}, {
    "city": "Stara Zagora, Bulgaria",
    "coords": {
        "lat": "42.423",
        "lng": "25.635"
    }
}, {
    "city": "Vejle, Denmark",
    "coords": {
        "lat": "55.715",
        "lng": "9.526"
    }
}, {
    "city": "Panevežys, Lithuania",
    "coords": {
        "lat": "55.751",
        "lng": "24.295"
    }
}, {
    "city": "Horst, Netherlands",
    "coords": {
        "lat": "51.45",
        "lng": "6.053"
    }
}, {
    "city": "Beaumont, Belgium",
    "coords": {
        "lat": "50.237",
        "lng": "4.24"
    }
}, {
    "city": "Petrov, Czech Republic",
    "coords": {
        "lat": "49.888",
        "lng": "14.437"
    }
}, {
    "city": "Skopje, Macedonia",
    "coords": {
        "lat": "41.995",
        "lng": "21.43"
    }
}, {
    "city": "Heraklion, Greece",
    "coords": {
        "lat": "35.329",
        "lng": "25.124"
    }
}, {
    "city": "Tallinn, Estonia",
    "coords": {
        "lat": "59.437",
        "lng": "24.754"
    }
}, {
    "city": "Tripolis, Greece",
    "coords": {
        "lat": "37.508",
        "lng": "22.367"
    }
}, {
    "city": "Bunschoten, Netherlands",
    "coords": {
        "lat": "52.244",
        "lng": "5.375"
    }
}, {
    "city": "Jodoigne, Belgium",
    "coords": {
        "lat": "50.725",
        "lng": "4.862"
    }
}, {
    "city": "Warszawa, Poland",
    "coords": {
        "lat": "52.229",
        "lng": "21.006"
    }
}, {
    "city": "Ruinen, Netherlands",
    "coords": {
        "lat": "52.763",
        "lng": "6.36"
    }
}, {
    "city": "Otocac, Croatia",
    "coords": {
        "lat": "44.87",
        "lng": "15.239"
    }
}, {
    "city": "Oslo, Norway",
    "coords": {
        "lat": "59.912",
        "lng": "10.75"
    }
}, {
    "city": "Drachten, Netherlands",
    "coords": {
        "lat": "53.103",
        "lng": "6.099"
    }
}, {
    "city": "Mechelen, Belgium",
    "coords": {
        "lat": "51.028",
        "lng": "4.476"
    }
}, {
    "city": "Mouscron, Belgium",
    "coords": {
        "lat": "50.748",
        "lng": "3.215"
    }
}, {
    "city": "Torshavn, Faroe Islands",
    "coords": {
        "lat": "62.021",
        "lng": "-6.77"
    }
}, {
    "city": "Copenhagen, Denmark",
    "coords": {
        "lat": "55.713",
        "lng": "12.535"
    }
}, {
    "city": "ARIS, Greece",
    "coords": {
        "lat": "37.099",
        "lng": "22.003"
    }
}, {
    "city": "Olomouc, Czech Republic",
    "coords": {
        "lat": "49.562",
        "lng": "17.261"
    }
}, {
    "city": "Samos, Greece",
    "coords": {
        "lat": "37.749",
        "lng": "26.974"
    }
}, {
    "city": "Corinth, Greece",
    "coords": {
        "lat": "37.936",
        "lng": "22.921"
    }
}, {
    "city": "Katwijk, Netherlands",
    "coords": {
        "lat": "52.197",
        "lng": "4.424"
    }
}, {
    "city": "Sarajevo, Bosnia and Herzegovina",
    "coords": {
        "lat": "43.859",
        "lng": "18.436"
    }
}, {
    "city": "Houdeng-Aimeries, Belgium",
    "coords": {
        "lat": "50.483",
        "lng": "4.151"
    }
}, {
    "city": "София, Bulgaria",
    "coords": {
        "lat": "42.678",
        "lng": "23.399"
    }
}, {
    "city": "Dronninglund, Denmark",
    "coords": {
        "lat": "57.159",
        "lng": "10.292"
    }
}, {
    "city": "Kraków, Poland",
    "coords": {
        "lat": "50.073",
        "lng": "20.036"
    }
}, {
    "city": "Bihac, Bosnia and Herzegovina",
    "coords": {
        "lat": "44.811",
        "lng": "15.85"
    }
}, {
    "city": "Mladá Boleslav, Czech Republic",
    "coords": {
        "lat": "50.433",
        "lng": "14.914"
    }
}, {
    "city": "Borger, Netherlands",
    "coords": {
        "lat": "52.924",
        "lng": "6.795"
    }
}, {
    "city": "Geel, Belgium",
    "coords": {
        "lat": "51.182",
        "lng": "4.988"
    }
}, {
    "city": "Denekamp, Netherlands",
    "coords": {
        "lat": "52.377",
        "lng": "7.008"
    }
}, {
    "city": "Riga, Latvia",
    "coords": {
        "lat": "57.028",
        "lng": "24.045"
    }
}, {
    "city": "Enschede, Netherlands",
    "coords": {
        "lat": "52.242",
        "lng": "6.873"
    }
}, {
    "city": "Güzelyurt, Cyprus",
    "coords": {
        "lat": "35.196",
        "lng": "32.993"
    }
}, {
    "city": "Minsk, Belarus",
    "coords": {
        "lat": "53.883",
        "lng": "27.504"
    }
}, {
    "city": "Banja Luka, Bosnia and Herzegovina",
    "coords": {
        "lat": "44.774",
        "lng": "17.2"
    }
}, {
    "city": "Praha, Czech Republic",
    "coords": {
        "lat": "50.127",
        "lng": "14.457"
    }
}, {
    "city": "Kokemäki, Finland",
    "coords": {
        "lat": "61.255",
        "lng": "22.336"
    }
}, {
    "city": "Sint-Niklaas, Belgium",
    "coords": {
        "lat": "51.155",
        "lng": "4.155"
    }
}, {
    "city": "Pigadia, Greece",
    "coords": {
        "lat": "35.508",
        "lng": "27.212"
    }
}, {
    "city": "Hoogezand, Netherlands",
    "coords": {
        "lat": "53.156",
        "lng": "6.755"
    }
}, {
    "city": "Zevenbergen, Netherlands",
    "coords": {
        "lat": "51.645",
        "lng": "4.61"
    }
}, {
    "city": "Grojec, Poland",
    "coords": {
        "lat": "51.862",
        "lng": "20.871"
    }
}, {
    "city": "Silistra, Bulgaria",
    "coords": {
        "lat": "44.117",
        "lng": "27.267"
    }
}, {
    "city": "Nicosia, Cyprus",
    "coords": {
        "lat": "35.167",
        "lng": "33.367"
    }
}, {
    "city": "Villach, Carinthia, Austria",
    "coords": {
        "lat": "46.604",
        "lng": "13.869"
    }
}, {
    "city": "Mierlo, Netherlands",
    "coords": {
        "lat": "51.444",
        "lng": "5.62"
    }
}, {
    "city": "Mažeikiai, Lithuania",
    "coords": {
        "lat": "56.309",
        "lng": "22.329"
    }
}, {
    "city": "Tallinn, Estonia",
    "coords": {
        "lat": "59.437",
        "lng": "24.754"
    }
}, {
    "city": "Mogilev, Belarus",
    "coords": {
        "lat": "53.908",
        "lng": "30.346"
    }
}, {
    "city": "Mogilev, Belarus",
    "coords": {
        "lat": "53.908",
        "lng": "30.346"
    }
}, {
    "city": "Glina, Croatia",
    "coords": {
        "lat": "45.334",
        "lng": "16.09"
    }
}, {
    "city": "Rijswijk, Netherlands",
    "coords": {
        "lat": "52.033",
        "lng": "4.314"
    }
}, {
    "city": "Dubrovnik, Croatia",
    "coords": {
        "lat": "42.654",
        "lng": "18.085"
    }
}, {
    "city": "Tórshavn, Faroe Islands",
    "coords": {
        "lat": "62.021",
        "lng": "-6.77"
    }
}, {
    "city": "Zwolle, Netherlands",
    "coords": {
        "lat": "52.492",
        "lng": "6.107"
    }
}, {
    "city": "Schiedam, Netherlands",
    "coords": {
        "lat": "51.915",
        "lng": "4.415"
    }
}, {
    "city": "Aghios Nikolaos, Greece",
    "coords": {
        "lat": "35.185",
        "lng": "25.706"
    }
}, {
    "city": "Brno, Czech Republic",
    "coords": {
        "lat": "49.204",
        "lng": "16.655"
    }
}, {
    "city": "Brno, Czech Republic",
    "coords": {
        "lat": "49.204",
        "lng": "16.655"
    }
}, {
    "city": "Kuressaare, Saaremaa, Estonia",
    "coords": {
        "lat": "58.248",
        "lng": "22.487"
    }
}, {
    "city": "'s-Graveland, Netherlands",
    "coords": {
        "lat": "52.238",
        "lng": "5.122"
    }
}, {
    "city": "Larisa, Greece",
    "coords": {
        "lat": "39.61",
        "lng": "22.416"
    }
}, {
    "city": "Nida, Lithuania",
    "coords": {
        "lat": "55.309",
        "lng": "21.008"
    }
}, {
    "city": "Velika Gorica, Croatia",
    "coords": {
        "lat": "45.729",
        "lng": "16.06"
    }
}, {
    "city": "Papendrecht, Netherlands",
    "coords": {
        "lat": "51.829",
        "lng": "4.679"
    }
}, {
    "city": "Písek, Czech Republic",
    "coords": {
        "lat": "49.304",
        "lng": "14.141"
    }
}, {
    "city": "София, Bulgaria",
    "coords": {
        "lat": "42.678",
        "lng": "23.399"
    }
}, {
    "city": "Korgessaare, Estonia",
    "coords": {
        "lat": "58.982",
        "lng": "22.469"
    }
}, {
    "city": "Harderwijk, Netherlands",
    "coords": {
        "lat": "52.347",
        "lng": "5.633"
    }
}, {
    "city": "Koszalin, Poland",
    "coords": {
        "lat": "54.19",
        "lng": "16.196"
    }
}, {
    "city": "Warszawa, Poland",
    "coords": {
        "lat": "52.229",
        "lng": "21.006"
    }
}, {
    "city": "Brno, Czech Republic",
    "coords": {
        "lat": "49.204",
        "lng": "16.655"
    }
}, {
    "city": "Camenca, Moldova",
    "coords": {
        "lat": "48.007",
        "lng": "28.721"
    }
}, {
    "city": "Brno, Czech Republic",
    "coords": {
        "lat": "49.204",
        "lng": "16.655"
    }
}, {
    "city": "Dedemsvaart, Netherlands",
    "coords": {
        "lat": "52.606",
        "lng": "6.457"
    }
}, {
    "city": "Gomel, Belarus",
    "coords": {
        "lat": "52.424",
        "lng": "31.014"
    }
}, {
    "city": "Limassol, Cyprus",
    "coords": {
        "lat": "34.717",
        "lng": "33.02"
    }
}, {
    "city": "Alexandroupolis, Greece",
    "coords": {
        "lat": "40.847",
        "lng": "25.881"
    }
}, {
    "city": "Jyväskylä, Finland",
    "coords": {
        "lat": "62.213",
        "lng": "25.718"
    }
}, {
    "city": "Kotka, Finland",
    "coords": {
        "lat": "60.541",
        "lng": "26.969"
    }
}, {
    "city": "Limassol, Cyprus",
    "coords": {
        "lat": "34.717",
        "lng": "33.02"
    }
}, {
    "city": "Lefkada, Greece",
    "coords": {
        "lat": "38.83",
        "lng": "20.703"
    }
}, {
    "city": "Chalkis, Greece",
    "coords": {
        "lat": "38.465",
        "lng": "23.603"
    }
}, {
    "city": "Lublin, Poland",
    "coords": {
        "lat": "51.253",
        "lng": "22.552"
    }
}, {
    "city": "Megen, Netherlands",
    "coords": {
        "lat": "51.822",
        "lng": "5.565"
    }
}, {
    "city": "Burgas, Bulgaria",
    "coords": {
        "lat": "42.502",
        "lng": "27.46"
    }
}, {
    "city": "Kuopio, Finland",
    "coords": {
        "lat": "62.906",
        "lng": "27.685"
    }
}, {
    "city": "Riga, Riga, Latvia",
    "coords": {
        "lat": "57.028",
        "lng": "24.045"
    }
}, {
    "city": "St. Veit, Carinthia, Austria",
    "coords": {
        "lat": "46.767",
        "lng": "14.353"
    }
}, {
    "city": "Trebinje, Bosnia and Herzegovina",
    "coords": {
        "lat": "42.717",
        "lng": "18.349"
    }
}, {
    "city": "Almelo, Netherlands",
    "coords": {
        "lat": "52.339",
        "lng": "6.636"
    }
}, {
    "city": "Nesodden, Norway",
    "coords": {
        "lat": "59.848",
        "lng": "10.672"
    }
}, {
    "city": "Lahti, Finland",
    "coords": {
        "lat": "60.983",
        "lng": "25.657"
    }
}, {
    "city": "Loon op Zand, Netherlands",
    "coords": {
        "lat": "51.625",
        "lng": "5.086"
    }
}, {
    "city": "Hollola, Finland",
    "coords": {
        "lat": "61.05",
        "lng": "25.433"
    }
}, {
    "city": "Alytus, Alytus, Lithuania",
    "coords": {
        "lat": "54.389",
        "lng": "24.021"
    }
}, {
    "city": "Balti, Moldova",
    "coords": {
        "lat": "47.787",
        "lng": "27.938"
    }
}, {
    "city": "Białystok, Poland",
    "coords": {
        "lat": "53.11",
        "lng": "23.134"
    }
}, {
    "city": "Skopje, Macedonia",
    "coords": {
        "lat": "41.995",
        "lng": "21.43"
    }
}, {
    "city": "Amfilochia, Greece",
    "coords": {
        "lat": "38.864",
        "lng": "21.165"
    }
}, {
    "city": "Mons, Belgium",
    "coords": {
        "lat": "50.451",
        "lng": "3.956"
    }
}, {
    "city": "Landgraaf, Netherlands",
    "coords": {
        "lat": "50.905",
        "lng": "6.007"
    }
}, {
    "city": "Lyngdal, Aust i Vest-Agder Counties, Norway",
    "coords": {
        "lat": "52.255",
        "lng": "6.999"
    }
}, {
    "city": "Losser, Netherlands",
    "coords": {
        "lat": "52.255",
        "lng": "6.999"
    }
}, {
    "city": "Tjerkgaast, Netherlands",
    "coords": {
        "lat": "52.904",
        "lng": "5.678"
    }
}, {
    "city": "Jyväskylä, Finland",
    "coords": {
        "lat": "62.213",
        "lng": "25.718"
    }
}, {
    "city": "Zevenaar, Netherlands",
    "coords": {
        "lat": "51.93",
        "lng": "6.086"
    }
}, {
    "city": "Radom, Poland",
    "coords": {
        "lat": "51.381",
        "lng": "21.174"
    }
}, {
    "city": "Warszawa, Poland",
    "coords": {
        "lat": "52.229",
        "lng": "21.006"
    }
}, {
    "city": "Alytus, Alytus, Lithuania",
    "coords": {
        "lat": "54.389",
        "lng": "24.021"
    }
}, {
    "city": "Borovets, Bulgaria",
    "coords": {
        "lat": "42.268",
        "lng": "23.604"
    }
}, {
    "city": "Orasje, Bosnia and Herzegovina",
    "coords": {
        "lat": "45.026",
        "lng": "18.699"
    }
}, {
    "city": "Eindhoven, Netherlands",
    "coords": {
        "lat": "51.448",
        "lng": "5.49"
    }
}, {
    "city": "Nicosia, Cyprus",
    "coords": {
        "lat": "35.167",
        "lng": "33.367"
    }
}, {
    "city": "Aytos, Bulgaria",
    "coords": {
        "lat": "42.698",
        "lng": "27.255"
    }
}, {
    "city": "Klaipeda, Lithuania",
    "coords": {
        "lat": "55.719",
        "lng": "21.125"
    }
}, {
    "city": "Iraklion, Greece",
    "coords": {
        "lat": "35.329",
        "lng": "25.124"
    }
}, {
    "city": "Nicosia, Cyprus",
    "coords": {
        "lat": "35.167",
        "lng": "33.367"
    }
}, {
    "city": "Osijek, Croatia",
    "coords": {
        "lat": "45.555",
        "lng": "18.687"
    }
}, {
    "city": "Goor, Netherlands",
    "coords": {
        "lat": "52.235",
        "lng": "6.587"
    }
}, {
    "city": "Bergen, Hordaland County, Norway",
    "coords": {
        "lat": "66.728",
        "lng": "14.79"
    }
}, {
    "city": "Vilnius, Lithuania",
    "coords": {
        "lat": "54.691",
        "lng": "25.27"
    }
}, {
    "city": "Kalamata, Greece",
    "coords": {
        "lat": "37.028",
        "lng": "22.112"
    }
}, {
    "city": "Kuopio, Finland",
    "coords": {
        "lat": "62.906",
        "lng": "27.685"
    }
}, {
    "city": "Baku, Azerbaijan",
    "coords": {
        "lat": "40.411",
        "lng": "49.872"
    }
}, {
    "city": "Praha, Czech Republic",
    "coords": {
        "lat": "50.127",
        "lng": "14.457"
    }
}, {
    "city": "Herceg Novi, Montenegro",
    "coords": {
        "lat": "42.455",
        "lng": "18.562"
    }
}, {
    "city": "Lublin, Poland",
    "coords": {
        "lat": "51.253",
        "lng": "22.552"
    }
}, {
    "city": "Krems, Oberosterreich, Austria",
    "coords": {
        "lat": "48.137",
        "lng": "13.965"
    }
}, {
    "city": "Wrocław, Poland",
    "coords": {
        "lat": "51.111",
        "lng": "17.043"
    }
}, {
    "city": "Bourgas, Bulgaria",
    "coords": {
        "lat": "42.502",
        "lng": "27.46"
    }
}, {
    "city": "Florina, Greece",
    "coords": {
        "lat": "40.783",
        "lng": "21.413"
    }
}, {
    "city": "København, Denmark",
    "coords": {
        "lat": "55.713",
        "lng": "12.535"
    }
}, {
    "city": "Nijkerk, Netherlands",
    "coords": {
        "lat": "52.219",
        "lng": "5.475"
    }
}, {
    "city": "Smilde, Netherlands",
    "coords": {
        "lat": "52.943",
        "lng": "6.439"
    }
}, {
    "city": "Sofia, Bulgaria",
    "coords": {
        "lat": "42.678",
        "lng": "23.399"
    }
}, {
    "city": "Bydgoszcz, Poland",
    "coords": {
        "lat": "53.133",
        "lng": "18.028"
    }
}, {
    "city": "Charleroi, Belgium",
    "coords": {
        "lat": "50.416",
        "lng": "4.443"
    }
}, {
    "city": "Baku, Azerbaijan",
    "coords": {
        "lat": "40.411",
        "lng": "49.872"
    }
}, {
    "city": "Aalborg, Denmark",
    "coords": {
        "lat": "57.012",
        "lng": "9.926"
    }
}, {
    "city": "Mostar, Bosnia and Herzegovina",
    "coords": {
        "lat": "43.347",
        "lng": "17.782"
    }
}, {
    "city": "Warszawa, Poland",
    "coords": {
        "lat": "52.229",
        "lng": "21.006"
    }
}, {
    "city": "Victoria, MT, Malta",
    "coords": {
        "lat": "47.034",
        "lng": "-109.645"
    }
}, {
    "city": "Ioannina, Greece",
    "coords": {
        "lat": "39.647",
        "lng": "20.841"
    }
}, {
    "city": "Limassol, Cyprus",
    "coords": {
        "lat": "34.717",
        "lng": "33.02"
    }
}, {
    "city": "Kaarina, Finland",
    "coords": {
        "lat": "60.392",
        "lng": "22.386"
    }
}, {
    "city": "Rotterdam, Netherlands",
    "coords": {
        "lat": "51.916",
        "lng": "4.458"
    }
}, {
    "city": "Turku, Finland",
    "coords": {
        "lat": "60.454",
        "lng": "22.267"
    }
}, {
    "city": "Sofia, Bulgaria",
    "coords": {
        "lat": "42.678",
        "lng": "23.399"
    }
}, {
    "city": "Oslo, Norway",
    "coords": {
        "lat": "59.912",
        "lng": "10.75"
    }
}, {
    "city": "Rotterdam, Netherlands",
    "coords": {
        "lat": "51.916",
        "lng": "4.458"
    }
}, {
    "city": "Tórshavn, Faroe Islands",
    "coords": {
        "lat": "62.021",
        "lng": "-6.77"
    }
}, {
    "city": "Poznan, Poland",
    "coords": {
        "lat": "52.356",
        "lng": "16.856"
    }
}, {
    "city": "Frederiksberg, Denmark",
    "coords": {
        "lat": "55.678",
        "lng": "12.534"
    }
}, {
    "city": "Nafplion, Greece",
    "coords": {
        "lat": "37.565",
        "lng": "22.81"
    }
}, {
    "city": "Yambol, Bulgaria",
    "coords": {
        "lat": "42.488",
        "lng": "26.511"
    }
}, {
    "city": "Utena, Lithuania",
    "coords": {
        "lat": "55.497",
        "lng": "25.603"
    }
}, {
    "city": "Bergem, Luxembourg",
    "coords": {
        "lat": "49.523",
        "lng": "6.039"
    }
}, {
    "city": "Oslo, Norway",
    "coords": {
        "lat": "59.912",
        "lng": "10.75"
    }
}, {
    "city": "Poznan, Poland",
    "coords": {
        "lat": "52.356",
        "lng": "16.856"
    }
}, {
    "city": "Kicevo, Macedonia",
    "coords": {
        "lat": "41.518",
        "lng": "20.966"
    }
}, {
    "city": "Salzburg, Austria",
    "coords": {
        "lat": "47.785",
        "lng": "13.044"
    }
}, {
    "city": "Capelle aan den IJssel, Netherlands",
    "coords": {
        "lat": "51.949",
        "lng": "4.57"
    }
}, {
    "city": "Monaco, Monaco",
    "coords": {
        "lat": "43.735",
        "lng": "7.418"
    }
}, {
    "city": "Nicosia, Cyprus",
    "coords": {
        "lat": "35.167",
        "lng": "33.367"
    }
}, {
    "city": "Bruxelles, Belgium",
    "coords": {
        "lat": "50.843",
        "lng": "4.378"
    }
}, {
    "city": "Tervola, Finland",
    "coords": {
        "lat": "66.077",
        "lng": "24.817"
    }
}, {
    "city": "Juragiai, Kaunas, Lithuania",
    "coords": {
        "lat": "54.795",
        "lng": "23.802"
    }
}, {
    "city": "Bielsko-Biala, Poland",
    "coords": {
        "lat": "49.825",
        "lng": "19.051"
    }
}, {
    "city": "Amsterdam, Netherlands",
    "coords": {
        "lat": "52.331",
        "lng": "4.867"
    }
}, {
    "city": "Annen, Netherlands",
    "coords": {
        "lat": "53.058",
        "lng": "6.723"
    }
}, {
    "city": "Vienne, Austria",
    "coords": {
        "lat": "48.208",
        "lng": "16.378"
    }
}, {
    "city": "Ter Apel, Netherlands",
    "coords": {
        "lat": "52.874",
        "lng": "7.056"
    }
}, {
    "city": "Amsterdam, Netherlands",
    "coords": {
        "lat": "52.331",
        "lng": "4.867"
    }
}, {
    "city": "Karpathos, Greece",
    "coords": {
        "lat": "35.508",
        "lng": "27.212"
    }
}, {
    "city": "Visaginas, Lithuania",
    "coords": {
        "lat": "55.599",
        "lng": "26.429"
    }
}, {
    "city": "Opava, Czech Republic",
    "coords": {
        "lat": "49.95",
        "lng": "17.866"
    }
}, {
    "city": "Verviers, Belgium",
    "coords": {
        "lat": "50.595",
        "lng": "5.87"
    }
}, {
    "city": "Kielce, Poland",
    "coords": {
        "lat": "50.892",
        "lng": "20.659"
    }
}, {
    "city": "Zagan, Poland",
    "coords": {
        "lat": "51.615",
        "lng": "15.324"
    }
}, {
    "city": "Praha, Czech Republic",
    "coords": {
        "lat": "50.127",
        "lng": "14.457"
    }
}, {
    "city": "Staphorst, Netherlands",
    "coords": {
        "lat": "52.644",
        "lng": "6.201"
    }
}, {
    "city": "Hoorn, Netherlands",
    "coords": {
        "lat": "52.656",
        "lng": "5.084"
    }
}, {
    "city": "Tuzla, Bosnia and Herzegovina",
    "coords": {
        "lat": "44.537",
        "lng": "18.696"
    }
}, {
    "city": "Vroomshoop, Netherlands",
    "coords": {
        "lat": "52.461",
        "lng": "6.571"
    }
}, {
    "city": "St. Julian's, Malta",
    "coords": {
        "lat": "35.912",
        "lng": "14.487"
    }
}, {
    "city": "Paphos, Cyprus",
    "coords": {
        "lat": "34.771",
        "lng": "32.426"
    }
}, {
    "city": "Pärnu, Estonia",
    "coords": {
        "lat": "58.382",
        "lng": "24.506"
    }
}, {
    "city": "Vilnius, Vilnius, Lithuania",
    "coords": {
        "lat": "54.691",
        "lng": "25.27"
    }
}, {
    "city": "Olomouc, Czech Republic",
    "coords": {
        "lat": "49.562",
        "lng": "17.261"
    }
}, {
    "city": "Veenendaal, Netherlands",
    "coords": {
        "lat": "52.033",
        "lng": "5.543"
    }
}, {
    "city": "Budejovice, Czech Republic",
    "coords": {
        "lat": "48.967",
        "lng": "14.479"
    }
}, {
    "city": "Birkirkara, MT, Malta",
    "coords": {
        "lat": "47.034",
        "lng": "-109.645"
    }
}, {
    "city": "Sankt Leonhard am Forst, Austria",
    "coords": {
        "lat": "48.144",
        "lng": "15.283"
    }
}, {
    "city": "Warszawa , Poland",
    "coords": {
        "lat": "52.229",
        "lng": "21.006"
    }
}, {
    "city": "Zoetermeer, Netherlands",
    "coords": {
        "lat": "52.057",
        "lng": "4.483"
    }
}, {
    "city": "Hengelo, Netherlands",
    "coords": {
        "lat": "52.276",
        "lng": "6.825"
    }
}, {
    "city": "Kozani, Greece",
    "coords": {
        "lat": "40.306",
        "lng": "21.788"
    }
}, {
    "city": "Vukovar, Croatia",
    "coords": {
        "lat": "45.375",
        "lng": "18.958"
    }
}, {
    "city": "Wrocław, Poland",
    "coords": {
        "lat": "51.111",
        "lng": "17.043"
    }
}, {
    "city": "Kardla, Estonia",
    "coords": {
        "lat": "58.999",
        "lng": "22.741"
    }
}, {
    "city": "Kicevo, Macedonia",
    "coords": {
        "lat": "41.518",
        "lng": "20.966"
    }
}, {
    "city": "Zielona Góra, Poland",
    "coords": {
        "lat": "51.939",
        "lng": "15.486"
    }
}, {
    "city": "Tiraspol, Moldova",
    "coords": {
        "lat": "46.853",
        "lng": "29.614"
    }
}, {
    "city": "София, Bulgaria",
    "coords": {
        "lat": "42.678",
        "lng": "23.399"
    }
}, {
    "city": "Stavanger, Norway",
    "coords": {
        "lat": "58.97",
        "lng": "5.74"
    }
}, {
    "city": "Megen, Netherlands",
    "coords": {
        "lat": "51.822",
        "lng": "5.565"
    }
}, {
    "city": "Brussels, Belgium",
    "coords": {
        "lat": "50.843",
        "lng": "4.378"
    }
}, {
    "city": "Bitola, Macedonia",
    "coords": {
        "lat": "41.032",
        "lng": "21.336"
    }
}, {
    "city": "Zagreb, Croatia",
    "coords": {
        "lat": "45.802",
        "lng": "15.947"
    }
}, {
    "city": "Zamosc, Poland",
    "coords": {
        "lat": "50.724",
        "lng": "23.248"
    }
}, {
    "city": "Linnamae, Haapsalu, Estonia",
    "coords": {
        "lat": "58.995",
        "lng": "23.716"
    }
}, {
    "city": "Lochem, Netherlands",
    "coords": {
        "lat": "52.161",
        "lng": "6.419"
    }
}, {
    "city": "Znojmo, Czech Republic",
    "coords": {
        "lat": "48.852",
        "lng": "16.065"
    }
}, {
    "city": "Larnaca, Cyprus",
    "coords": {
        "lat": "34.931",
        "lng": "33.633"
    }
}, {
    "city": "Kaarina, Finland",
    "coords": {
        "lat": "60.392",
        "lng": "22.386"
    }
}, {
    "city": "Oulu, Finland",
    "coords": {
        "lat": "65.01",
        "lng": "25.473"
    }
}, {
    "city": "Plzeň, Czech Republic",
    "coords": {
        "lat": "49.723",
        "lng": "13.351"
    }
}, {
    "city": "Piekary, Poland",
    "coords": {
        "lat": "50.364",
        "lng": "18.994"
    }
}, {
    "city": "Zary, Poland",
    "coords": {
        "lat": "51.655",
        "lng": "15.147"
    }
}, {
    "city": "Tartu, Estonia",
    "coords": {
        "lat": "58.376",
        "lng": "26.726"
    }
}, {
    "city": "Vilnius, Lithuania",
    "coords": {
        "lat": "54.691",
        "lng": "25.27"
    }
}, {
    "city": "Graz, Styria, Austria",
    "coords": {
        "lat": "47.056",
        "lng": "15.417"
    }
}, {
    "city": "Białystok, Poland",
    "coords": {
        "lat": "53.11",
        "lng": "23.134"
    }
}, {
    "city": "Pyrgos, Greece",
    "coords": {
        "lat": "37.67",
        "lng": "21.442"
    }
}, {
    "city": "Umag, Croatia",
    "coords": {
        "lat": "45.44",
        "lng": "13.525"
    }
}, {
    "city": "Antwerp, Belgium",
    "coords": {
        "lat": "51.235",
        "lng": "4.424"
    }
}, {
    "city": "Vienna, Austria",
    "coords": {
        "lat": "48.208",
        "lng": "16.378"
    }
}, {
    "city": "Sint-Niklaas, Belgium",
    "coords": {
        "lat": "51.155",
        "lng": "4.155"
    }
}, {
    "city": "Tartu, Estonia",
    "coords": {
        "lat": "58.376",
        "lng": "26.726"
    }
}, {
    "city": "Hradec Králové, Czech Republic",
    "coords": {
        "lat": "50.211",
        "lng": "15.807"
    }
}, {
    "city": "Lyngdal, Norway",
    "coords": {
        "lat": "58.133",
        "lng": "7.064"
    }
}, {
    "city": "Białystok, Poland",
    "coords": {
        "lat": "53.11",
        "lng": "23.134"
    }
}, {
    "city": "Rotterdam, Netherlands",
    "coords": {
        "lat": "51.916",
        "lng": "4.458"
    }
}, {
    "city": "Montana, Bulgaria",
    "coords": {
        "lat": "43.416",
        "lng": "23.227"
    }
}, {
    "city": "Delnice, Croatia",
    "coords": {
        "lat": "45.398",
        "lng": "14.801"
    }
}, {
    "city": "Tbilisi, Georgia",
    "coords": {
        "lat": "41.726",
        "lng": "44.793"
    }
}, {
    "city": "Berane, Montenegro",
    "coords": {
        "lat": "42.846",
        "lng": "19.871"
    }
}, {
    "city": "Kerkenveld, Netherlands",
    "coords": {
        "lat": "52.668",
        "lng": "6.499"
    }
}, {
    "city": "Brussels, Belgium",
    "coords": {
        "lat": "50.843",
        "lng": "4.378"
    }
}, {
    "city": "Emmen, Netherlands",
    "coords": {
        "lat": "52.751",
        "lng": "6.886"
    }
}, {
    "city": "Sieradz, Poland",
    "coords": {
        "lat": "51.583",
        "lng": "18.718"
    }
}, {
    "city": "Janja, Bosnia and Herzegovina",
    "coords": {
        "lat": "44.666",
        "lng": "19.247"
    }
}, {
    "city": "Westerlo, Belgium",
    "coords": {
        "lat": "51.086",
        "lng": "4.912"
    }
}, {
    "city": "Tienen, Belgium",
    "coords": {
        "lat": "50.81",
        "lng": "4.93"
    }
}, {
    "city": "Maglaj, Bosnia and Herzegovina",
    "coords": {
        "lat": "44.544",
        "lng": "18.095"
    }
}, {
    "city": "Krestena, Greece",
    "coords": {
        "lat": "37.59",
        "lng": "21.615"
    }
}, {
    "city": "Nivaa, Denmark",
    "coords": {
        "lat": "55.937",
        "lng": "12.487"
    }
}, {
    "city": "Gorzow Slaski, Poland",
    "coords": {
        "lat": "51.028",
        "lng": "18.423"
    }
}, {
    "city": "Breda, Netherlands",
    "coords": {
        "lat": "51.586",
        "lng": "4.815"
    }
}, {
    "city": "Tjerkgaast, Netherlands",
    "coords": {
        "lat": "52.904",
        "lng": "5.678"
    }
}, {
    "city": "Balti, Moldova",
    "coords": {
        "lat": "47.787",
        "lng": "27.938"
    }
}, {
    "city": "Larnaca, Larnaca, Cyprus",
    "coords": {
        "lat": "34.931",
        "lng": "33.633"
    }
}, {
    "city": "Olsztyn, Poland",
    "coords": {
        "lat": "53.774",
        "lng": "20.515"
    }
}, {
    "city": "Riga, Latvia",
    "coords": {
        "lat": "57.028",
        "lng": "24.045"
    }
}, {
    "city": "Heraklion, Greece",
    "coords": {
        "lat": "35.329",
        "lng": "25.124"
    }
}, {
    "city": "Pale, Bosnia and Herzegovina",
    "coords": {
        "lat": "43.819",
        "lng": "18.56"
    }
}, {
    "city": "Pula, Croatia",
    "coords": {
        "lat": "44.88",
        "lng": "13.862"
    }
}, {
    "city": "Copenhagen, Denmark",
    "coords": {
        "lat": "55.713",
        "lng": "12.535"
    }
}, {
    "city": "Budweis, Czech Republic",
    "coords": {
        "lat": "48.967",
        "lng": "14.479"
    }
}, {
    "city": "Kalampaka, Greece",
    "coords": {
        "lat": "39.699",
        "lng": "21.633"
    }
}, {
    "city": "Agrinio, Greece",
    "coords": {
        "lat": "38.622",
        "lng": "21.405"
    }
}, {
    "city": "Daugavpils, Latvia",
    "coords": {
        "lat": "55.856",
        "lng": "26.557"
    }
}, {
    "city": "Komotini, Greece",
    "coords": {
        "lat": "41.116",
        "lng": "25.394"
    }
}, {
    "city": "Sparti, Greece",
    "coords": {
        "lat": "37.074",
        "lng": "22.428"
    }
}, {
    "city": "Tjerkgaast, Netherlands",
    "coords": {
        "lat": "52.904",
        "lng": "5.678"
    }
}, {
    "city": "Białystok, Poland",
    "coords": {
        "lat": "53.11",
        "lng": "23.134"
    }
}, {
    "city": "Xaghra, Malta",
    "coords": {
        "lat": "36.057",
        "lng": "14.274"
    }
}, {
    "city": "Montana, Bulgaria",
    "coords": {
        "lat": "43.416",
        "lng": "23.227"
    }
}, {
    "city": "Łódź, Poland",
    "coords": {
        "lat": "51.788",
        "lng": "19.468"
    }
}, {
    "city": "Kishinev, Moldova",
    "coords": {
        "lat": "47.038",
        "lng": "28.812"
    }
}, {
    "city": "Tetovo, Macedonia",
    "coords": {
        "lat": "42.009",
        "lng": "20.977"
    }
}, {
    "city": "Best, Netherlands",
    "coords": {
        "lat": "51.501",
        "lng": "5.392"
    }
}, {
    "city": "Akrotiri, Cyprus",
    "coords": {
        "lat": "34.602",
        "lng": "32.954"
    }
}, {
    "city": "Eurajoki, Finland",
    "coords": {
        "lat": "61.203",
        "lng": "21.739"
    }
}, {
    "city": "Białystok, Poland",
    "coords": {
        "lat": "53.11",
        "lng": "23.134"
    }
}, {
    "city": "Den Bosch, Netherlands",
    "coords": {
        "lat": "51.683",
        "lng": "5.33"
    }
}, {
    "city": "Roskilde, Denmark",
    "coords": {
        "lat": "55.658",
        "lng": "12.107"
    }
}, {
    "city": "Karlovy Vary, Czech Republic",
    "coords": {
        "lat": "50.234",
        "lng": "12.852"
    }
}, {
    "city": "Weurt, Netherlands",
    "coords": {
        "lat": "51.858",
        "lng": "5.815"
    }
}, {
    "city": "Oslo, Norway",
    "coords": {
        "lat": "59.912",
        "lng": "10.75"
    }
}, {
    "city": "Charleroi, Belgium",
    "coords": {
        "lat": "50.416",
        "lng": "4.443"
    }
}, {
    "city": "Lahti, Finland",
    "coords": {
        "lat": "60.983",
        "lng": "25.657"
    }
}, {
    "city": "Limassol, Cyprus",
    "coords": {
        "lat": "34.717",
        "lng": "33.02"
    }
}, {
    "city": "Kozani, Greece",
    "coords": {
        "lat": "40.306",
        "lng": "21.788"
    }
}, {
    "city": "Harlingen, Netherlands",
    "coords": {
        "lat": "53.165",
        "lng": "5.433"
    }
}, {
    "city": "Unzmarkt, Austria",
    "coords": {
        "lat": "47.198",
        "lng": "14.443"
    }
}, {
    "city": "Lomza, Poland",
    "coords": {
        "lat": "53.161",
        "lng": "22.071"
    }
}, {
    "city": "De Lutte, Netherlands",
    "coords": {
        "lat": "52.315",
        "lng": "6.99"
    }
}, {
    "city": "Steinsdalen, Sør-Trøndelag , Norway",
    "coords": {
        "lat": "64.299",
        "lng": "10.513"
    }
}, {
    "city": "Grevena, Greece",
    "coords": {
        "lat": "40.084",
        "lng": "21.429"
    }
}, {
    "city": "Oulu, Finland",
    "coords": {
        "lat": "65.01",
        "lng": "25.473"
    }
}, {
    "city": "Arendal, Norway",
    "coords": {
        "lat": "58.446",
        "lng": "8.743"
    }
}, {
    "city": "Helsinki, Finland",
    "coords": {
        "lat": "60.208",
        "lng": "24.899"
    }
}, {
    "city": "Mytilini, Greece",
    "coords": {
        "lat": "39.11",
        "lng": "26.555"
    }
}, {
    "city": "Marijampole, Lithuania",
    "coords": {
        "lat": "54.551",
        "lng": "23.301"
    }
}, {
    "city": "København, Denmark",
    "coords": {
        "lat": "55.713",
        "lng": "12.535"
    }
}, {
    "city": "Aalborg, Denmark",
    "coords": {
        "lat": "57.012",
        "lng": "9.926"
    }
}, {
    "city": "Baku, Azerbaijan",
    "coords": {
        "lat": "40.411",
        "lng": "49.872"
    }
}, {
    "city": "Tammela, Finland",
    "coords": {
        "lat": "60.808",
        "lng": "23.795"
    }
}, {
    "city": "Tartu, Estonia",
    "coords": {
        "lat": "58.376",
        "lng": "26.726"
    }
}, {
    "city": "Espoo, Finland",
    "coords": {
        "lat": "60.207",
        "lng": "24.656"
    }
}, {
    "city": "Ioannina, Greece",
    "coords": {
        "lat": "39.647",
        "lng": "20.841"
    }
}, {
    "city": "Vriezenveen, Netherlands",
    "coords": {
        "lat": "52.405",
        "lng": "6.606"
    }
}, {
    "city": "Nieuwerkerk aan den IJssel, Netherlands",
    "coords": {
        "lat": "51.97",
        "lng": "4.606"
    }
}, {
    "city": "Oslo, Oslo, Norway",
    "coords": {
        "lat": "59.912",
        "lng": "10.75"
    }
}, {
    "city": "Pirgos, Greece",
    "coords": {
        "lat": "37.67",
        "lng": "21.442"
    }
}, {
    "city": "Graz, Austria",
    "coords": {
        "lat": "47.056",
        "lng": "15.417"
    }
}, {
    "city": "Alkmaar, Netherlands",
    "coords": {
        "lat": "52.671",
        "lng": "4.761"
    }
}, {
    "city": "Sint-niklaas, Belgium",
    "coords": {
        "lat": "51.155",
        "lng": "4.155"
    }
}, {
    "city": "Kuressaare, Estonia",
    "coords": {
        "lat": "58.248",
        "lng": "22.487"
    }
}, {
    "city": "Wrocław, Poland",
    "coords": {
        "lat": "51.111",
        "lng": "17.043"
    }
}, {
    "city": "Grouw, Netherlands",
    "coords": {
        "lat": "53.092",
        "lng": "5.833"
    }
}, {
    "city": "Hulsberg, Netherlands",
    "coords": {
        "lat": "50.89",
        "lng": "5.861"
    }
}, {
    "city": "Tuzla, Bosnia and Herzegovina",
    "coords": {
        "lat": "44.537",
        "lng": "18.696"
    }
}, {
    "city": "Plovdiv, Bulgaria",
    "coords": {
        "lat": "42.136",
        "lng": "24.755"
    }
}, {
    "city": "Tartu, Tartu, Estonia",
    "coords": {
        "lat": "58.376",
        "lng": "26.726"
    }
}, {
    "city": "Weesp, Netherlands",
    "coords": {
        "lat": "52.31",
        "lng": "5.033"
    }
}, {
    "city": "Łódź, Poland",
    "coords": {
        "lat": "51.788",
        "lng": "19.468"
    }
}, {
    "city": "Wrocław, Poland",
    "coords": {
        "lat": "51.111",
        "lng": "17.043"
    }
}, {
    "city": "Levadeia, Greece",
    "coords": {
        "lat": "38.439",
        "lng": "22.88"
    }
}, {
    "city": "Pardubice, Czech Republic",
    "coords": {
        "lat": "50.029",
        "lng": "15.763"
    }
}, {
    "city": "Sofia, Bulgaria",
    "coords": {
        "lat": "42.678",
        "lng": "23.399"
    }
}, {
    "city": "Joutseno, Finland",
    "coords": {
        "lat": "61.121",
        "lng": "28.503"
    }
}, {
    "city": "Antwerp, Belgium",
    "coords": {
        "lat": "51.235",
        "lng": "4.424"
    }
}, {
    "city": "Mandal, Norway",
    "coords": {
        "lat": "58.021",
        "lng": "7.474"
    }
}, {
    "city": "Roosendaal, Netherlands",
    "coords": {
        "lat": "51.542",
        "lng": "4.478"
    }
}, {
    "city": "Praha, Czech Republic",
    "coords": {
        "lat": "50.127",
        "lng": "14.457"
    }
}, {
    "city": "Klaipeda, Lithuania",
    "coords": {
        "lat": "55.719",
        "lng": "21.125"
    }
}, {
    "city": "San Gwann, Malta",
    "coords": {
        "lat": "35.911",
        "lng": "14.47"
    }
}, {
    "city": "Wingene, Belgium",
    "coords": {
        "lat": "51.059",
        "lng": "3.274"
    }
}, {
    "city": "Szczecin, Poland",
    "coords": {
        "lat": "53.425",
        "lng": "14.556"
    }
}, {
    "city": "Chania, Greece",
    "coords": {
        "lat": "35.504",
        "lng": "24.017"
    }
}, {
    "city": "Turku, Finland",
    "coords": {
        "lat": "60.454",
        "lng": "22.267"
    }
}, {
    "city": "Baku, Azerbaijan",
    "coords": {
        "lat": "40.411",
        "lng": "49.872"
    }
}, {
    "city": "Antwerpen, Belgium",
    "coords": {
        "lat": "51.235",
        "lng": "4.424"
    }
}, {
    "city": "Gdańsk, Poland",
    "coords": {
        "lat": "54.329",
        "lng": "18.625"
    }
}, {
    "city": "Oslo, Norway",
    "coords": {
        "lat": "59.912",
        "lng": "10.75"
    }
}, {
    "city": "Liberec, Czech Republic",
    "coords": {
        "lat": "50.742",
        "lng": "15.081"
    }
}, {
    "city": "Vitebsk, Belarus",
    "coords": {
        "lat": "55.189",
        "lng": "30.205"
    }
}, {
    "city": "Kozani, Greece",
    "coords": {
        "lat": "40.306",
        "lng": "21.788"
    }
}, {
    "city": "Ede, Netherlands",
    "coords": {
        "lat": "52.034",
        "lng": "5.618"
    }
}, {
    "city": "Tammela, Finland",
    "coords": {
        "lat": "60.808",
        "lng": "23.795"
    }
}, {
    "city": "Helsinki, Finland",
    "coords": {
        "lat": "60.208",
        "lng": "24.899"
    }
}, {
    "city": "Ostrava, Czech Republic",
    "coords": {
        "lat": "49.839",
        "lng": "18.288"
    }
}, {
    "city": "Lappeenranta, Finland",
    "coords": {
        "lat": "61.055",
        "lng": "28.184"
    }
}, {
    "city": "Plzeň, Czech Republic",
    "coords": {
        "lat": "49.723",
        "lng": "13.351"
    }
}, {
    "city": "Gomel, Belarus",
    "coords": {
        "lat": "52.424",
        "lng": "31.014"
    }
}, {
    "city": "Florina, Greece",
    "coords": {
        "lat": "40.783",
        "lng": "21.413"
    }
}, {
    "city": "София, Bulgaria",
    "coords": {
        "lat": "42.678",
        "lng": "23.399"
    }
}, {
    "city": "Lelystad, Netherlands",
    "coords": {
        "lat": "52.514",
        "lng": "5.501"
    }
}, {
    "city": "Łódź, Poland",
    "coords": {
        "lat": "51.788",
        "lng": "19.468"
    }
}, {
    "city": "Oberpullendorf, Austria",
    "coords": {
        "lat": "47.5",
        "lng": "16.509"
    }
}, {
    "city": "Sisak, Croatia",
    "coords": {
        "lat": "45.491",
        "lng": "16.385"
    }
}, {
    "city": "Λάρισα, Greece",
    "coords": {
        "lat": "39.61",
        "lng": "22.416"
    }
}, {
    "city": "Biala Podlaska, Poland",
    "coords": {
        "lat": "52.042",
        "lng": "23.122"
    }
}, {
    "city": "København, Denmark",
    "coords": {
        "lat": "55.713",
        "lng": "12.535"
    }
}, {
    "city": "Aarschot, Belgium",
    "coords": {
        "lat": "51.008",
        "lng": "4.829"
    }
}, {
    "city": "Smilde, Netherlands",
    "coords": {
        "lat": "52.943",
        "lng": "6.439"
    }
}, {
    "city": "Split, Croatia",
    "coords": {
        "lat": "43.514",
        "lng": "16.431"
    }
}, {
    "city": "Koprivnica, Croatia",
    "coords": {
        "lat": "46.163",
        "lng": "16.82"
    }
}, {
    "city": "Agrinio, Greece",
    "coords": {
        "lat": "38.622",
        "lng": "21.405"
    }
}, {
    "city": "Tallinn, Estonia",
    "coords": {
        "lat": "59.437",
        "lng": "24.754"
    }
}, {
    "city": "Nicosia, Cyprus",
    "coords": {
        "lat": "35.167",
        "lng": "33.367"
    }
}, {
    "city": "Sarajevo, Bosnia and Herzegovina",
    "coords": {
        "lat": "43.859",
        "lng": "18.436"
    }
}, {
    "city": "Gyumri, Armenia",
    "coords": {
        "lat": "40.792",
        "lng": "43.84"
    }
}, {
    "city": "Leuven, Belgium",
    "coords": {
        "lat": "50.886",
        "lng": "4.708"
    }
}, {
    "city": "Paralimni, Famagusta, Cyprus",
    "coords": {
        "lat": "35.047",
        "lng": "33.984"
    }
}, {
    "city": "Utena, Lithuania",
    "coords": {
        "lat": "55.497",
        "lng": "25.603"
    }
}, {
    "city": "Oulu, Finland",
    "coords": {
        "lat": "65.01",
        "lng": "25.473"
    }
}, {
    "city": "Liberec, Czech Republic",
    "coords": {
        "lat": "50.742",
        "lng": "15.081"
    }
}, {
    "city": "Sevlievo, Bulgaria",
    "coords": {
        "lat": "43.021",
        "lng": "25.104"
    }
}, {
    "city": "Devin, Bulgaria",
    "coords": {
        "lat": "41.712",
        "lng": "24.417"
    }
}, {
    "city": "Ardenice, Albania",
    "coords": {
        "lat": "40.813",
        "lng": "19.611"
    }
}, {
    "city": "Nicosia, Cyprus",
    "coords": {
        "lat": "35.167",
        "lng": "33.367"
    }
}, {
    "city": "Amsterdam, Netherlands",
    "coords": {
        "lat": "52.331",
        "lng": "4.867"
    }
}, {
    "city": "Zabbar, Malta",
    "coords": {
        "lat": "35.876",
        "lng": "14.532"
    }
}, {
    "city": "Charleroi, Belgium",
    "coords": {
        "lat": "50.416",
        "lng": "4.443"
    }
}, {
    "city": "Denderhoutem, Belgium",
    "coords": {
        "lat": "50.872",
        "lng": "4.018"
    }
}, {
    "city": "Harlingen, Netherlands",
    "coords": {
        "lat": "53.165",
        "lng": "5.433"
    }
}, {
    "city": "Luxembourg, Luxembourg",
    "coords": {
        "lat": "49.6",
        "lng": "6.118"
    }
}, {
    "city": "Goes, Netherlands",
    "coords": {
        "lat": "51.492",
        "lng": "3.893"
    }
}, {
    "city": "Mierlo, Netherlands",
    "coords": {
        "lat": "51.444",
        "lng": "5.62"
    }
}, {
    "city": "Nafplion, Greece",
    "coords": {
        "lat": "37.565",
        "lng": "22.81"
    }
}, {
    "city": "Plovdiv, Bulgaria",
    "coords": {
        "lat": "42.136",
        "lng": "24.755"
    }
}, {
    "city": "Volos, Greece",
    "coords": {
        "lat": "39.364",
        "lng": "22.929"
    }
}, {
    "city": "Sofia, Sofia, Bulgaria",
    "coords": {
        "lat": "42.689",
        "lng": "23.33"
    }
}, {
    "city": "Dragør, Denmark",
    "coords": {
        "lat": "55.592",
        "lng": "12.673"
    }
}, {
    "city": "Panaritis, Greece",
    "coords": {
        "lat": "37.631",
        "lng": "22.823"
    }
}, {
    "city": "Megen, Netherlands",
    "coords": {
        "lat": "51.822",
        "lng": "5.565"
    }
}, {
    "city": "Bjelovar, Croatia",
    "coords": {
        "lat": "45.907",
        "lng": "16.845"
    }
}, {
    "city": "Wrocław, Poland",
    "coords": {
        "lat": "51.111",
        "lng": "17.043"
    }
}, {
    "city": "Semmering, Austria",
    "coords": {
        "lat": "47.634",
        "lng": "15.832"
    }
}, {
    "city": "Pogradec, Albania",
    "coords": {
        "lat": "40.901",
        "lng": "20.672"
    }
}, {
    "city": "Tbilisi, Georgia",
    "coords": {
        "lat": "41.726",
        "lng": "44.793"
    }
}, {
    "city": "Prague, Czech Republic",
    "coords": {
        "lat": "50.127",
        "lng": "14.457"
    }
}, {
    "city": "Enschede, Netherlands",
    "coords": {
        "lat": "52.242",
        "lng": "6.873"
    }
}, {
    "city": "Kupres, Bosnia and Herzegovina",
    "coords": {
        "lat": "43.993",
        "lng": "17.273"
    }
}, {
    "city": "Maastricht, Netherlands",
    "coords": {
        "lat": "50.846",
        "lng": "5.723"
    }
}, {
    "city": "Deutschlandsberg, Austria",
    "coords": {
        "lat": "46.811",
        "lng": "15.221"
    }
}, {
    "city": "Yerevan, Armenia",
    "coords": {
        "lat": "40.207",
        "lng": "44.556"
    }
}, {
    "city": "Rhodes, Greece",
    "coords": {
        "lat": "36.167",
        "lng": "28"
    }
}, {
    "city": "Alexandroupoli, Greece",
    "coords": {
        "lat": "40.847",
        "lng": "25.881"
    }
}, {
    "city": "Yerevan, Armenia",
    "coords": {
        "lat": "40.207",
        "lng": "44.556"
    }
}, {
    "city": "Valmiera, Latvia",
    "coords": {
        "lat": "57.549",
        "lng": "25.433"
    }
}, {
    "city": "Aalter, Belgium",
    "coords": {
        "lat": "51.083",
        "lng": "3.458"
    }
}, {
    "city": "Krapina, Croatia",
    "coords": {
        "lat": "46.166",
        "lng": "15.879"
    }
}, {
    "city": "Sudislav nad Orlici, Czech Republic",
    "coords": {
        "lat": "49.988",
        "lng": "16.317"
    }
}, {
    "city": "Sigulda, Latvia",
    "coords": {
        "lat": "57.158",
        "lng": "24.849"
    }
}, {
    "city": "Eindhoven, Netherlands",
    "coords": {
        "lat": "51.448",
        "lng": "5.49"
    }
}, {
    "city": "Etten, Netherlands",
    "coords": {
        "lat": "51.915",
        "lng": "6.341"
    }
}, {
    "city": "Linz, Upper Austria, Austria",
    "coords": {
        "lat": "48.319",
        "lng": "14.285"
    }
}, {
    "city": "Turnhout, Belgium",
    "coords": {
        "lat": "51.313",
        "lng": "4.933"
    }
}, {
    "city": "Scharding, Oberosterreich, Austria",
    "coords": {
        "lat": "48.454",
        "lng": "13.444"
    }
}, {
    "city": "Xanthi, Greece",
    "coords": {
        "lat": "41.141",
        "lng": "24.887"
    }
}, {
    "city": "Leoben, Austria",
    "coords": {
        "lat": "47.376",
        "lng": "15.082"
    }
}, {
    "city": "Oostzaan, Netherlands",
    "coords": {
        "lat": "52.442",
        "lng": "4.875"
    }
}, {
    "city": "Vis, Bulgaria",
    "coords": {
        "lat": "41.446",
        "lng": "25.856"
    }
}, {
    "city": "Babruysk, Belarus",
    "coords": {
        "lat": "53.137",
        "lng": "29.245"
    }
}, {
    "city": "Brussels, Belgium",
    "coords": {
        "lat": "50.843",
        "lng": "4.378"
    }
}, {
    "city": "Daugavpils, Latvia",
    "coords": {
        "lat": "55.856",
        "lng": "26.557"
    }
}, {
    "city": "Yerevan, Armenia",
    "coords": {
        "lat": "40.207",
        "lng": "44.556"
    }
}, {
    "city": "Cahul, Moldova",
    "coords": {
        "lat": "45.911",
        "lng": "28.199"
    }
}, {
    "city": "Zakros, Greece",
    "coords": {
        "lat": "35.114",
        "lng": "26.22"
    }
}, {
    "city": "Kavala, Greece",
    "coords": {
        "lat": "40.941",
        "lng": "24.421"
    }
}, {
    "city": "Borne, Netherlands",
    "coords": {
        "lat": "52.306",
        "lng": "6.745"
    }
}, {
    "city": "Waalre, Netherlands",
    "coords": {
        "lat": "51.401",
        "lng": "5.47"
    }
}, {
    "city": "Bar, Montenegro",
    "coords": {
        "lat": "42.104",
        "lng": "19.099"
    }
}, {
    "city": "Osijek, Croatia",
    "coords": {
        "lat": "45.555",
        "lng": "18.687"
    }
}, {
    "city": "Drammen, Norway",
    "coords": {
        "lat": "59.743",
        "lng": "10.216"
    }
}, {
    "city": "Genk, Belgium",
    "coords": {
        "lat": "50.964",
        "lng": "5.489"
    }
}, {
    "city": "Arslev, Denmark",
    "coords": {
        "lat": "55.309",
        "lng": "10.486"
    }
}, {
    "city": "Vejle, Denmark",
    "coords": {
        "lat": "55.715",
        "lng": "9.526"
    }
}, {
    "city": "Kumanovo, Macedonia",
    "coords": {
        "lat": "42.137",
        "lng": "21.718"
    }
}, {
    "city": "Sazava, Czech Republic",
    "coords": {
        "lat": "49.872",
        "lng": "14.903"
    }
}, {
    "city": "Olsztyn, Poland",
    "coords": {
        "lat": "53.774",
        "lng": "20.515"
    }
}, {
    "city": "Kutaisi, Georgia",
    "coords": {
        "lat": "42.264",
        "lng": "42.705"
    }
}, {
    "city": "Šiauliai, Lithuania",
    "coords": {
        "lat": "55.916",
        "lng": "23.341"
    }
}, {
    "city": "Lamia, Greece",
    "coords": {
        "lat": "38.888",
        "lng": "22.443"
    }
}, {
    "city": "Reykjavík, Iceland",
    "coords": {
        "lat": "64.147",
        "lng": "-21.934"
    }
}, {
    "city": "Nicosia, Nicosia, Cyprus",
    "coords": {
        "lat": "35.167",
        "lng": "33.367"
    }
}, {
    "city": "Split, Croatia",
    "coords": {
        "lat": "43.514",
        "lng": "16.431"
    }
}, {
    "city": "Tirana, Albania",
    "coords": {
        "lat": "41.322",
        "lng": "19.825"
    }
}, {
    "city": "Tholen, Netherlands",
    "coords": {
        "lat": "51.536",
        "lng": "4.217"
    }
}, {
    "city": "Bruxelles, Belgium",
    "coords": {
        "lat": "50.843",
        "lng": "4.378"
    }
}, {
    "city": "Antwerpen, Belgium",
    "coords": {
        "lat": "51.235",
        "lng": "4.424"
    }
}, {
    "city": "Enschede, Netherlands",
    "coords": {
        "lat": "52.242",
        "lng": "6.873"
    }
}, {
    "city": "Nuenen, Netherlands",
    "coords": {
        "lat": "51.475",
        "lng": "5.549"
    }
}, {
    "city": "Vienna, Austria",
    "coords": {
        "lat": "48.208",
        "lng": "16.378"
    }
}, {
    "city": "Velika Kladuša, Bosnia and Herzegovina",
    "coords": {
        "lat": "45.192",
        "lng": "15.806"
    }
}, {
    "city": "Pärnu, Estonia",
    "coords": {
        "lat": "58.382",
        "lng": "24.506"
    }
}, {
    "city": "Espoo, Finland",
    "coords": {
        "lat": "60.207",
        "lng": "24.656"
    }
}, {
    "city": "Czestochowa, Poland",
    "coords": {
        "lat": "50.816",
        "lng": "19.094"
    }
}, {
    "city": "Arta, Greece",
    "coords": {
        "lat": "39.155",
        "lng": "20.985"
    }
}, {
    "city": "Siatista, Greece",
    "coords": {
        "lat": "40.25",
        "lng": "21.557"
    }
}, {
    "city": "Mouscron, Belgium",
    "coords": {
        "lat": "50.748",
        "lng": "3.215"
    }
}, {
    "city": "Hommelvik, Norway",
    "coords": {
        "lat": "63.411",
        "lng": "10.795"
    }
}, {
    "city": "Nes, Netherlands",
    "coords": {
        "lat": "53.396",
        "lng": "6.046"
    }
}, {
    "city": "Razlog, Bulgaria",
    "coords": {
        "lat": "41.887",
        "lng": "23.469"
    }
}, {
    "city": "Den Haag, Netherlands",
    "coords": {
        "lat": "52.067",
        "lng": "4.293"
    }
}, {
    "city": "Tallinn, Estonia",
    "coords": {
        "lat": "59.437",
        "lng": "24.754"
    }
}, {
    "city": "Kladno, Czech Republic",
    "coords": {
        "lat": "50.143",
        "lng": "14.079"
    }
}, {
    "city": "Bree, Belgium",
    "coords": {
        "lat": "51.14",
        "lng": "5.599"
    }
}, {
    "city": "Ioannina, Greece",
    "coords": {
        "lat": "39.647",
        "lng": "20.841"
    }
}, {
    "city": "Varaždin, Croatia",
    "coords": {
        "lat": "46.306",
        "lng": "16.326"
    }
}, {
    "city": "Zuidlaren, Netherlands",
    "coords": {
        "lat": "53.095",
        "lng": "6.687"
    }
}, {
    "city": "Dobrich, Bulgaria",
    "coords": {
        "lat": "43.564",
        "lng": "27.819"
    }
}, {
    "city": "Rodenrijs, Netherlands",
    "coords": {
        "lat": "51.982",
        "lng": "4.468"
    }
}, {
    "city": "Oslo, Norway",
    "coords": {
        "lat": "59.912",
        "lng": "10.75"
    }
}, {
    "city": "Oslo, Norway",
    "coords": {
        "lat": "59.912",
        "lng": "10.75"
    }
}, {
    "city": "Riga, Latvia",
    "coords": {
        "lat": "57.028",
        "lng": "24.045"
    }
}, {
    "city": "Copenhagen, Denmark",
    "coords": {
        "lat": "55.713",
        "lng": "12.535"
    }
}, {
    "city": "Zwolle, Netherlands",
    "coords": {
        "lat": "52.492",
        "lng": "6.107"
    }
}, {
    "city": "Valasske Mezirici, Czech Republic",
    "coords": {
        "lat": "49.468",
        "lng": "17.983"
    }
}, {
    "city": "Chelm, Poland",
    "coords": {
        "lat": "51.133",
        "lng": "23.507"
    }
}, {
    "city": "Dubrovnik, Croatia",
    "coords": {
        "lat": "42.654",
        "lng": "18.085"
    }
}, {
    "city": "Rhodes, Greece",
    "coords": {
        "lat": "36.167",
        "lng": "28"
    }
}, {
    "city": "Zutphen, Netherlands",
    "coords": {
        "lat": "52.126",
        "lng": "6.202"
    }
}, {
    "city": "Lodz, Poland",
    "coords": {
        "lat": "51.788",
        "lng": "19.468"
    }
}, {
    "city": "Copenhagen, Denmark",
    "coords": {
        "lat": "55.713",
        "lng": "12.535"
    }
}, {
    "city": "Wien, Austria",
    "coords": {
        "lat": "48.208",
        "lng": "16.378"
    }
}, {
    "city": "Poznan, Poland",
    "coords": {
        "lat": "52.356",
        "lng": "16.856"
    }
}, {
    "city": "Plovdiv, Bulgaria",
    "coords": {
        "lat": "42.136",
        "lng": "24.755"
    }
}, {
    "city": "Vilnius, Lithuania",
    "coords": {
        "lat": "54.691",
        "lng": "25.27"
    }
}, {
    "city": "Kristiansand, Norway",
    "coords": {
        "lat": "58.15",
        "lng": "7.991"
    }
}, {
    "city": "Ignalina, Lithuania",
    "coords": {
        "lat": "55.34",
        "lng": "26.161"
    }
}, {
    "city": "Zundert, Netherlands",
    "coords": {
        "lat": "51.47",
        "lng": "4.663"
    }
}, {
    "city": "Putten, Netherlands",
    "coords": {
        "lat": "52.253",
        "lng": "5.607"
    }
}, {
    "city": "Reykjavík, Iceland",
    "coords": {
        "lat": "64.147",
        "lng": "-21.934"
    }
}, {
    "city": "Gorzów Wielkopolski, Poland",
    "coords": {
        "lat": "52.72",
        "lng": "15.179"
    }
}, {
    "city": "Rijeka, Croatia",
    "coords": {
        "lat": "45.324",
        "lng": "14.45"
    }
}, {
    "city": "Serres, Greece",
    "coords": {
        "lat": "41.091",
        "lng": "23.565"
    }
}, {
    "city": "Riihimäki, Finland",
    "coords": {
        "lat": "60.732",
        "lng": "24.79"
    }
}, {
    "city": "Wageningen, Netherlands",
    "coords": {
        "lat": "51.97",
        "lng": "5.665"
    }
}, {
    "city": "Hollola, Finland",
    "coords": {
        "lat": "61.05",
        "lng": "25.433"
    }
}, {
    "city": "Aalst, Belgium",
    "coords": {
        "lat": "50.945",
        "lng": "4.045"
    }
}, {
    "city": "Zielona Góra, Poland",
    "coords": {
        "lat": "51.939",
        "lng": "15.486"
    }
}, {
    "city": "Thasos, Greece",
    "coords": {
        "lat": "40.776",
        "lng": "24.708"
    }
}, {
    "city": "Siteia, Greece",
    "coords": {
        "lat": "35.21",
        "lng": "26.096"
    }
}, {
    "city": "Askim, Norway",
    "coords": {
        "lat": "59.581",
        "lng": "11.171"
    }
}, {
    "city": "Dordrecht, Netherlands",
    "coords": {
        "lat": "51.784",
        "lng": "4.674"
    }
}, {
    "city": "Chania, Greece",
    "coords": {
        "lat": "35.504",
        "lng": "24.017"
    }
}, {
    "city": "Yerevan, Armenia",
    "coords": {
        "lat": "40.207",
        "lng": "44.556"
    }
}, {
    "city": "Baranovichi, Belarus",
    "coords": {
        "lat": "53.14",
        "lng": "26.022"
    }
}, {
    "city": "Mont Rigi, Belgium",
    "coords": {
        "lat": "50.511",
        "lng": "6.075"
    }
}, {
    "city": "Haapsalu, Estonia",
    "coords": {
        "lat": "58.938",
        "lng": "23.543"
    }
}, {
    "city": "Plovdiv, Bulgaria",
    "coords": {
        "lat": "42.136",
        "lng": "24.755"
    }
}, {
    "city": "Gent, Belgium",
    "coords": {
        "lat": "51.048",
        "lng": "3.706"
    }
}, {
    "city": "Szczecin, Poland",
    "coords": {
        "lat": "53.425",
        "lng": "14.556"
    }
}, {
    "city": "Tallinn, Estonia",
    "coords": {
        "lat": "59.437",
        "lng": "24.754"
    }
}, {
    "city": "Walbrzych, Poland",
    "coords": {
        "lat": "50.762",
        "lng": "16.284"
    }
}, {
    "city": "Salzburg, Austria",
    "coords": {
        "lat": "47.785",
        "lng": "13.044"
    }
}, {
    "city": "Pazardzhik, Bulgaria",
    "coords": {
        "lat": "42.2",
        "lng": "24.333"
    }
}, {
    "city": "Szczecinek, Poland",
    "coords": {
        "lat": "53.711",
        "lng": "16.693"
    }
}, {
    "city": "Skopje, Macedonia",
    "coords": {
        "lat": "41.995",
        "lng": "21.43"
    }
}, {
    "city": "Tartu, Estonia",
    "coords": {
        "lat": "58.376",
        "lng": "26.726"
    }
}, {
    "city": "Nokia, Finland",
    "coords": {
        "lat": "61.501",
        "lng": "23.537"
    }
}, {
    "city": "Albertslund, Denmark",
    "coords": {
        "lat": "55.675",
        "lng": "12.356"
    }
}, {
    "city": "Tournai, Belgium",
    "coords": {
        "lat": "50.609",
        "lng": "3.392"
    }
}, {
    "city": "Ersfjordbotn, Troms, Norway",
    "coords": {
        "lat": "69.694",
        "lng": "18.62"
    }
}, {
    "city": "Ringe, Denmark",
    "coords": {
        "lat": "55.562",
        "lng": "10.28"
    }
}, {
    "city": "Paphos, Cyprus",
    "coords": {
        "lat": "34.771",
        "lng": "32.426"
    }
}, {
    "city": "Mechelen, Belgium",
    "coords": {
        "lat": "51.028",
        "lng": "4.476"
    }
}, {
    "city": "Liege, Belgium",
    "coords": {
        "lat": "50.622",
        "lng": "5.59"
    }
}, {
    "city": "København, Denmark",
    "coords": {
        "lat": "55.713",
        "lng": "12.535"
    }
}, {
    "city": "Zielona Góra, Poland",
    "coords": {
        "lat": "51.939",
        "lng": "15.486"
    }
}, {
    "city": "Dubrovnik, Croatia",
    "coords": {
        "lat": "42.654",
        "lng": "18.085"
    }
}, {
    "city": "Beverwijk, Netherlands",
    "coords": {
        "lat": "52.484",
        "lng": "4.655"
    }
}, {
    "city": "Iraklion, Greece",
    "coords": {
        "lat": "35.329",
        "lng": "25.124"
    }
}, {
    "city": "Grodno, Belarus",
    "coords": {
        "lat": "53.672",
        "lng": "23.841"
    }
}, {
    "city": "Dendermonde, Belgium",
    "coords": {
        "lat": "51.032",
        "lng": "4.078"
    }
}, {
    "city": "Rhodes, Greece",
    "coords": {
        "lat": "36.167",
        "lng": "28"
    }
}, {
    "city": "Nendeln, Liechtenstein",
    "coords": {
        "lat": "47.2",
        "lng": "9.544"
    }
}, {
    "city": "Lubaczow, Poland",
    "coords": {
        "lat": "50.157",
        "lng": "23.126"
    }
}, {
    "city": "Turku, Finland",
    "coords": {
        "lat": "60.454",
        "lng": "22.267"
    }
}, {
    "city": "Roosendaal, Netherlands",
    "coords": {
        "lat": "51.542",
        "lng": "4.478"
    }
}, {
    "city": "Margraten, Netherlands",
    "coords": {
        "lat": "50.82",
        "lng": "5.821"
    }
}, {
    "city": "Kortrijk, Belgium",
    "coords": {
        "lat": "50.828",
        "lng": "3.265"
    }
}, {
    "city": "Klaipeda, Lithuania",
    "coords": {
        "lat": "55.719",
        "lng": "21.125"
    }
}, {
    "city": "Krnjevo, Macedonia",
    "coords": {
        "lat": "41.307",
        "lng": "22.127"
    }
},