[{"city":"Dracena, SP, Brazil","coords":{"lat":"-21.474","lng":"-51.528"}},{"city":"Varjota, CE, Brazil","coords":{"lat":"-4.194","lng":"-40.474"}},{"city":"Fortaleza, CE, Brazil","coords":{"lat":"-3.718","lng":"-38.543"}},{"city":"Jaguariuna, SP, Brazil","coords":{"lat":"-22.702","lng":"-46.982"}},{"city":"Loja, Ecuador","coords":{"lat":"-4.022","lng":"-79.203"}},{"city":"Corrientes, Argentina","coords":{"lat":"-27.506","lng":"-58.822"}},{"city":"Seberi, RS, Brazil","coords":{"lat":"-27.481","lng":"-53.403"}},{"city":"Lages, SC, Brazil","coords":{"lat":"-27.82","lng":"-50.321"}},{"city":"Florencia, Colombia","coords":{"lat":"1.599","lng":"-75.6"}},{"city":"Brasília, Brazil","coords":{"lat":"-15.784","lng":"-47.881"}},{"city":"Uberlandia , MG, Brazil","coords":{"lat":"-18.919","lng":"-48.278"}},{"city":"Sorocaba, SP, Brazil","coords":{"lat":"-23.508","lng":"-47.512"}},{"city":"Salvador, BA, Brazil","coords":{"lat":"-12.971","lng":"-38.513"}},{"city":"Sorocaba, SP, Brazil","coords":{"lat":"-23.508","lng":"-47.512"}},{"city":"Sorocaba, SP, Brazil","coords":{"lat":"-23.508","lng":"-47.512"}},{"city":"Corumbiara, RO, Brazil","coords":{"lat":"-12.998","lng":"-60.944"}},{"city":"Estrela, RS, Brazil","coords":{"lat":"-29.501","lng":"-51.964"}},{"city":"Aracatuba, SP, Brazil","coords":{"lat":"-21.208","lng":"-50.404"}},{"city":"Arcos, MG, Brazil","coords":{"lat":"-20.287","lng":"-45.545"}},{"city":"Cambui, MG, Brazil","coords":{"lat":"-22.61","lng":"-46.058"}},{"city":"Tacna, Peru","coords":{"lat":"-18.004","lng":"-70.258"}},{"city":"Faxinal dos Guedes, SC, Brazil","coords":{"lat":"-26.854","lng":"-52.261"}},{"city":"Varzea Nova, BA, Brazil","coords":{"lat":"-11.253","lng":"-40.947"}},{"city":"Solonopole, CE, Brazil","coords":{"lat":"-5.719","lng":"-39.008"}},{"city":"Bella Vista, Paraguay","coords":{"lat":"-22.122","lng":"-56.513"}},{"city":"Lagoa Da Prata, MG, Brazil","coords":{"lat":"-20.025","lng":"-45.533"}},{"city":"Itambe, PE, Brazil","coords":{"lat":"-7.447","lng":"-35.239"}},{"city":"Saladillo, Argentina","coords":{"lat":"-35.633","lng":"-57.767"}},{"city":"Villa del Rosario, Cordoba, Argentina","coords":{"lat":"-31.564","lng":"-63.539"}},{"city":"Laguna Alsina, Argentina","coords":{"lat":"-36.81","lng":"-62.246"}},{"city":"Timoteo, MG, Brazil","coords":{"lat":"-19.544","lng":"-42.653"}},{"city":"Salesopolis, SP, Brazil","coords":{"lat":"-23.532","lng":"-45.845"}},{"city":"San Cristobal, Venezuela","coords":{"lat":"7.764","lng":"-72.228"}},{"city":"Machala, El Oro, Ecuador","coords":{"lat":"-3.263","lng":"-79.961"}},{"city":"Riobamba, Ecuador","coords":{"lat":"-1.664","lng":"-78.641"}},{"city":"Pendencias, Brazil","coords":{"lat":"-5.257","lng":"-36.719"}},{"city":"Pires do Rio, GO, Brazil","coords":{"lat":"-17.304","lng":"-48.282"}},{"city":"Amparo, SP, Brazil","coords":{"lat":"-22.711","lng":"-46.823"}},{"city":"Ayacucho, Argentina","coords":{"lat":"-37.159","lng":"-58.49"}},{"city":"Rio Grande do Sul, RS, Brazil","coords":{"lat":"-32.033","lng":"-52.098"}},{"city":"Cajamarca, Peru","coords":{"lat":"-7.155","lng":"-78.521"}},{"city":"Pedro Juan Caballero, Paraguay","coords":{"lat":"-22.559","lng":"-55.731"}},{"city":"Belem, PA, Brazil","coords":{"lat":"-1.448","lng":"-48.473"}},{"city":"Aguilares, Argentina","coords":{"lat":"-27.437","lng":"-65.612"}},{"city":"Chanco, Chile","coords":{"lat":"-36.286","lng":"-72.711"}},{"city":"Gurupi, TO, Brazil","coords":{"lat":"-11.725","lng":"-49.078"}},{"city":"San Cristobal, Venezuela","coords":{"lat":"7.764","lng":"-72.228"}},{"city":"Pasto, Colombia","coords":{"lat":"1.218","lng":"-77.278"}},{"city":"Teresina, PI, Brazil","coords":{"lat":"-5.089","lng":"-42.802"}},{"city":"San Cristobal, Venezuela","coords":{"lat":"7.764","lng":"-72.228"}},{"city":"Itiquira, MT, Brazil","coords":{"lat":"-17.209","lng":"-54.148"}},{"city":"Fortaleza, CE, Brazil","coords":{"lat":"-3.718","lng":"-38.543"}},{"city":"Pelotas, RS, Brazil","coords":{"lat":"-31.763","lng":"-52.341"}},{"city":"Sao Luis, MA, Brazil","coords":{"lat":"-2.588","lng":"-44.198"}},{"city":"Salvador, BA, Brazil","coords":{"lat":"-12.971","lng":"-38.513"}},{"city":"Mérida, Venezuela","coords":{"lat":"8.598","lng":"-71.145"}},{"city":"Gravataí , RS , Brazil","coords":{"lat":"-29.943","lng":"-51.032"}},{"city":"Lagoa Vermelha, RS, Brazil","coords":{"lat":"-28.206","lng":"-51.52"}},{"city":"Brusque, SC, Brazil","coords":{"lat":"-27.095","lng":"-48.919"}},{"city":"Florianopolis , SC, Brazil","coords":{"lat":"-27.598","lng":"-48.548"}},{"city":"Paulinia, SP, Brazil","coords":{"lat":"-22.764","lng":"-47.151"}},{"city":"Senhor do Bonfim, BA, Brazil","coords":{"lat":"-10.457","lng":"-40.194"}},{"city":"Sunchales, SF, Argentina","coords":{"lat":"-30.944","lng":"-61.561"}},{"city":"Loja, Ecuador","coords":{"lat":"-4.022","lng":"-79.203"}},{"city":"Santa Marta, Colombia","coords":{"lat":"11.242","lng":"-74.205"}},{"city":"Ituiutaba, MG, Brazil","coords":{"lat":"-18.965","lng":"-49.463"}},{"city":"Remedios, Antioquia, Colombia","coords":{"lat":"7.028","lng":"-74.703"}},{"city":"Camacari , BA, Brazil","coords":{"lat":"-12.723","lng":"-38.333"}},{"city":"Buenavista, Colombia","coords":{"lat":"4.402","lng":"-75.735"}},{"city":"Salto do Lontra, PR, Brazil","coords":{"lat":"-25.752","lng":"-53.269"}},{"city":"Aguas Formosas, MG, Brazil","coords":{"lat":"-17.081","lng":"-40.939"}},{"city":"Uberaba, MG, Brazil","coords":{"lat":"-19.777","lng":"-47.94"}},{"city":"Guaiba, RS, Brazil","coords":{"lat":"-30.097","lng":"-51.316"}},{"city":"Arequipa, Arequipa, Peru","coords":{"lat":"-16.401","lng":"-71.536"}},{"city":"Colonia del Sacramento, Uruguay","coords":{"lat":"-34.337","lng":"-57.756"}},{"city":"Para De Minas , MG, Brazil","coords":{"lat":"-19.847","lng":"-44.602"}},{"city":"Araraquara, SP, Brazil","coords":{"lat":"-21.805","lng":"-48.196"}},{"city":"Nova Prata, RS, Brazil","coords":{"lat":"-28.784","lng":"-51.611"}},{"city":"Teresina, PI, Brazil","coords":{"lat":"-5.089","lng":"-42.802"}},{"city":"General Cabrera, Argentina","coords":{"lat":"-32.811","lng":"-63.87"}},{"city":"Garzon, Huila, Colombia","coords":{"lat":"2.195","lng":"-75.628"}},{"city":"Curitiba, PR, Brazil","coords":{"lat":"-25.44","lng":"-49.277"}},{"city":"Monte Belo, MG, Brazil","coords":{"lat":"-21.331","lng":"-46.368"}},{"city":"Suzano, SP, Brazil","coords":{"lat":"-23.56","lng":"-46.296"}},{"city":"Itabaiana, SE, Brazil","coords":{"lat":"-10.686","lng":"-37.425"}},{"city":"Belo Horizonte, MG, Brazil","coords":{"lat":"-19.969","lng":"-43.946"}},{"city":"Castelo, ES, Brazil","coords":{"lat":"-20.598","lng":"-41.205"}},{"city":"Recife, PE, Brazil","coords":{"lat":"-8.063","lng":"-34.873"}},{"city":"Catalao, GO, Brazil","coords":{"lat":"-18.177","lng":"-47.937"}},{"city":"Tres Coracoes, MG, Brazil","coords":{"lat":"-21.693","lng":"-45.255"}},{"city":"Lima, Peru","coords":{"lat":"-12.056","lng":"-77.027"}},{"city":"Minas, Uruguay","coords":{"lat":"-34.378","lng":"-55.238"}},{"city":"Asuncion, Paraguay","coords":{"lat":"-25.298","lng":"-57.623"}},{"city":"Rio de Janeiro, RJ, Brazil","coords":{"lat":"-22.912","lng":"-43.175"}},{"city":"Belo Horizonte, MG, Brazil","coords":{"lat":"-19.969","lng":"-43.946"}},{"city":"Santa Juliana, Brazil","coords":{"lat":"-19.312","lng":"-47.529"}},{"city":"Ribeirão Preto, SP, Brazil","coords":{"lat":"-21.177","lng":"-47.808"}},{"city":"Rondonopolis, MT, Brazil","coords":{"lat":"-16.443","lng":"-54.646"}},{"city":"Ibiruba , RS, Brazil","coords":{"lat":"-28.64","lng":"-53.095"}},{"city":"Fortaleza, CE, Brazil","coords":{"lat":"-3.718","lng":"-38.543"}},{"city":"Santa Cruz, Bolivia","coords":{"lat":"-17.779","lng":"-63.18"}},{"city":"Rio de Janeiro, RJ, Brazil","coords":{"lat":"-22.912","lng":"-43.175"}},{"city":"Mirandiba, PE, Brazil","coords":{"lat":"-8.121","lng":"-38.729"}},{"city":"Araruna, PB, Brazil","coords":{"lat":"-6.549","lng":"-35.756"}},{"city":"Juranda, PR, Brazil","coords":{"lat":"-24.421","lng":"-52.842"}},{"city":"Catamarca, Argentina","coords":{"lat":"-28.459","lng":"-65.78"}},{"city":"Boa Vista, RR, Brazil","coords":{"lat":"2.819","lng":"-60.671"}},{"city":"Vitória, ES, Brazil","coords":{"lat":"-20.317","lng":"-40.293"}},{"city":"Lagarto, SE, Brazil","coords":{"lat":"-10.915","lng":"-37.664"}},{"city":"Coronel Sapucaia, MS, Brazil","coords":{"lat":"-23.273","lng":"-55.528"}},{"city":"Marília, SP, Brazil","coords":{"lat":"-22.205","lng":"-49.968"}},{"city":"Cianorte, PR, Brazil","coords":{"lat":"-23.681","lng":"-52.629"}},{"city":"Dois Vizinhos, PR, Brazil","coords":{"lat":"-25.734","lng":"-53.059"}},{"city":"Pelotas, RS, Brazil","coords":{"lat":"-31.763","lng":"-52.341"}},{"city":"Tapejara , RS, Brazil","coords":{"lat":"-28.063","lng":"-52.011"}},{"city":"Cacapava do Sul, RS, Brazil","coords":{"lat":"-30.516","lng":"-53.487"}},{"city":"La Punta, Argentina","coords":{"lat":"-28.371","lng":"-64.794"}},{"city":"Bento Gonçalves, RS, Brazil","coords":{"lat":"-29.174","lng":"-51.519"}},{"city":"Limeira, SP, Brazil","coords":{"lat":"-22.564","lng":"-47.433"}},{"city":"Tocopilla, Chile","coords":{"lat":"-22.084","lng":"-70.182"}},{"city":"Villavicencio, Colombia","coords":{"lat":"4.132","lng":"-73.622"}},{"city":"Rio de Janeiro, RJ, Brazil","coords":{"lat":"-22.912","lng":"-43.175"}},{"city":"Itabaiana, PB, Brazil","coords":{"lat":"-7.332","lng":"-35.332"}},{"city":"Londrina, PR, Brazil","coords":{"lat":"-23.307","lng":"-51.153"}},{"city":"Avare, SP, Brazil","coords":{"lat":"-23.085","lng":"-48.916"}},{"city":"Las Toninas, Argentina","coords":{"lat":"-36.488","lng":"-56.7"}},{"city":"Vitória, ES, Brazil","coords":{"lat":"-20.317","lng":"-40.293"}},{"city":"Encantado, RS, Brazil","coords":{"lat":"-29.235","lng":"-51.87"}},{"city":"Asuncion, Paraguay","coords":{"lat":"-25.298","lng":"-57.623"}},{"city":"Sao Luis do Piaui, PI, Brazil","coords":{"lat":"-6.826","lng":"-41.323"}},{"city":"Treze Tilias, SC, Brazil","coords":{"lat":"-26.994","lng":"-51.414"}},{"city":"Posadas, Argentina","coords":{"lat":"-27.377","lng":"-55.901"}},{"city":"Fortaleza, CE, Brazil","coords":{"lat":"-3.718","lng":"-38.543"}},{"city":"Londrina, PR, Brazil","coords":{"lat":"-23.307","lng":"-51.153"}},{"city":"Curitiba, PR, Brazil","coords":{"lat":"-25.44","lng":"-49.277"}},{"city":"Catunda, CE, Brazil","coords":{"lat":"-4.649","lng":"-40.2"}},{"city":"Rio de Janeiro, RJ, Brazil","coords":{"lat":"-22.912","lng":"-43.175"}},{"city":"Aguas Formosas, MG, Brazil","coords":{"lat":"-17.081","lng":"-40.939"}},{"city":"Puerto Madryn, Argentina","coords":{"lat":"-42.771","lng":"-65.049"}},{"city":"Rio de Janeiro, RJ, Brazil","coords":{"lat":"-22.912","lng":"-43.175"}},{"city":"Paramaribo, Suriname","coords":{"lat":"5.82","lng":"-55.165"}},{"city":"Santa Luz, BA, Brazil","coords":{"lat":"-11.254","lng":"-39.369"}},{"city":"São Paulo, SP, Brazil","coords":{"lat":"-23.563","lng":"-46.655"}},{"city":"Teresina, PI, Brazil","coords":{"lat":"-5.089","lng":"-42.802"}},{"city":"Bento Gonçalves, RS, Brazil","coords":{"lat":"-29.174","lng":"-51.519"}},{"city":"Nieuw Nickerie, Suriname","coords":{"lat":"5.934","lng":"-56.986"}},{"city":"Corrientes, Argentina","coords":{"lat":"-27.506","lng":"-58.822"}},{"city":"Recife, PE, Brazil","coords":{"lat":"-8.063","lng":"-34.873"}},{"city":"Belo Horizonte, MG, Brazil","coords":{"lat":"-19.969","lng":"-43.946"}},{"city":"San Juan, Argentina","coords":{"lat":"-31.555","lng":"-68.522"}},{"city":"Joinville, SC, Brazil","coords":{"lat":"-26.305","lng":"-48.846"}},{"city":"Neiva, Colombia","coords":{"lat":"2.928","lng":"-75.279"}},{"city":"Resistencia, Argentina","coords":{"lat":"-27.452","lng":"-58.988"}},{"city":"Inocencia, MS, Brazil","coords":{"lat":"-19.729","lng":"-51.929"}},{"city":"Sorriso, MT, Brazil","coords":{"lat":"-12.55","lng":"-55.715"}},{"city":"Ampere, PR, Brazil","coords":{"lat":"-25.917","lng":"-53.472"}},{"city":"Lages, SC, Brazil","coords":{"lat":"-27.82","lng":"-50.321"}},{"city":"Jaguare, ES, Brazil","coords":{"lat":"-18.906","lng":"-40.076"}},{"city":"Rio do Sul, SC, Brazil","coords":{"lat":"-27.214","lng":"-49.644"}},{"city":"Tenente Portela, RS, Brazil","coords":{"lat":"-27.371","lng":"-53.759"}},{"city":"Aracruz, ES, Brazil","coords":{"lat":"-19.822","lng":"-40.279"}},{"city":"Santo Antonio do Amparo, MG, Brazil","coords":{"lat":"-20.95","lng":"-44.915"}},{"city":"Serra Talhada, PE, Brazil","coords":{"lat":"-7.985","lng":"-38.293"}},{"city":"Lima, Peru","coords":{"lat":"-12.056","lng":"-77.027"}},{"city":"Rio Branco, AC, Brazil","coords":{"lat":"-9.974","lng":"-67.808"}},{"city":"Mucuri, BA, Brazil","coords":{"lat":"-18.024","lng":"-39.863"}},{"city":"Silvania , GO, Brazil","coords":{"lat":"-16.66","lng":"-48.609"}},{"city":"Sao Pedro Do Butia, RS, Brazil","coords":{"lat":"-28.125","lng":"-54.893"}},{"city":"Capivari, SP, Brazil","coords":{"lat":"-22.999","lng":"-47.512"}},{"city":"Catamayo, Ecuador","coords":{"lat":"-3.949","lng":"-79.332"}},{"city":"Carangola, MG, Brazil","coords":{"lat":"-20.733","lng":"-42.033"}},{"city":"Joinville , SC, Brazil","coords":{"lat":"-26.305","lng":"-48.846"}},{"city":"Montes Claros, MG, Brazil","coords":{"lat":"-16.714","lng":"-43.844"}},{"city":"Papanduva, SC, Brazil","coords":{"lat":"-26.402","lng":"-50.151"}},{"city":"Ibarra, Ecuador","coords":{"lat":"0.365","lng":"-78.106"}},{"city":"Arapoti, PR, Brazil","coords":{"lat":"-24.146","lng":"-49.819"}},{"city":"Jequié, BA, Brazil","coords":{"lat":"-13.86","lng":"-40.107"}},{"city":"Campo Grande, MS, Brazil","coords":{"lat":"-20.456","lng":"-54.615"}},{"city":"Sao Jose Do Egito, PE, Brazil","coords":{"lat":"-7.47","lng":"-37.274"}},{"city":"Ituverava, SP, Brazil","coords":{"lat":"-20.334","lng":"-47.797"}},{"city":"Barreiros, PE, Brazil","coords":{"lat":"-8.811","lng":"-35.21"}},{"city":"Claudia, MT, Brazil","coords":{"lat":"-11.507","lng":"-54.883"}},{"city":"Carmo do Paranaiba, MG, Brazil","coords":{"lat":"-18.999","lng":"-46.312"}},{"city":"Ipiales, Colombia","coords":{"lat":"0.842","lng":"-77.683"}},{"city":"Pouso Alegre, MG, Brazil","coords":{"lat":"-22.232","lng":"-45.944"}},{"city":"Paramaribo, Suriname","coords":{"lat":"5.82","lng":"-55.165"}},{"city":"Goiania, GO, Brazil","coords":{"lat":"-16.679","lng":"-49.256"}},{"city":"Lumaco, Chile","coords":{"lat":"-38.166","lng":"-72.904"}},{"city":"Igrejinha, RS, Brazil","coords":{"lat":"-29.55","lng":"-50.785"}},{"city":"São João del Rei, MG, Brazil","coords":{"lat":"-21.131","lng":"-44.254"}},{"city":"Passos, MG, Brazil","coords":{"lat":"-20.721","lng":"-46.61"}},{"city":"Villa Mercedes, Argentina","coords":{"lat":"-33.663","lng":"-65.459"}},{"city":"Curitiba, PR, Brazil","coords":{"lat":"-25.44","lng":"-49.277"}},{"city":"Lajeado, RS, Brazil","coords":{"lat":"-29.468","lng":"-51.964"}},{"city":"Pedro Gomes, MS, Brazil","coords":{"lat":"-18.1","lng":"-54.553"}},{"city":"Zamora, Ecuador","coords":{"lat":"-4.068","lng":"-78.953"}},{"city":"Jeronimo Monteiro, ES, Brazil","coords":{"lat":"-20.789","lng":"-41.388"}},{"city":"Sapiranga, RS, Brazil","coords":{"lat":"-29.637","lng":"-51.004"}},{"city":"Punata, Bolivia","coords":{"lat":"-17.545","lng":"-65.837"}},{"city":"Sao Miguel do Iguacu, PR, Brazil","coords":{"lat":"-25.35","lng":"-54.242"}},{"city":"Volta Redonda , RJ, Brazil","coords":{"lat":"-22.505","lng":"-44.094"}},{"city":"Resistencia, Argentina","coords":{"lat":"-27.452","lng":"-58.988"}},{"city":"Baturite, CE, Brazil","coords":{"lat":"-4.327","lng":"-38.882"}},{"city":"Tacuarendi, Santa Fe, Argentina","coords":{"lat":"-28.413","lng":"-59.26"}},{"city":"Salto, Uruguay","coords":{"lat":"-31.411","lng":"-57.973"}},{"city":"Asuncion, Paraguay","coords":{"lat":"-25.298","lng":"-57.623"}},{"city":"Lima, Peru","coords":{"lat":"-12.056","lng":"-77.027"}},{"city":"Chiclana, Argentina","coords":{"lat":"-35.73","lng":"-61.739"}},{"city":"Orlandia, SP, Brazil","coords":{"lat":"-20.72","lng":"-47.885"}},{"city":"Trujillo, Peru","coords":{"lat":"-8.116","lng":"-79.023"}},{"city":"Asuncion, Paraguay","coords":{"lat":"-25.298","lng":"-57.623"}},{"city":"Cruzeiro do Sul, AC, Brazil","coords":{"lat":"-7.665","lng":"-72.65"}},{"city":"Sullana, Peru","coords":{"lat":"-4.824","lng":"-80.512"}},{"city":"Matucana, Peru","coords":{"lat":"-11.843","lng":"-76.383"}},{"city":"Cascavel, PR, Brazil","coords":{"lat":"-24.964","lng":"-53.454"}},{"city":"Gualeguaychu, Argentina","coords":{"lat":"-33.002","lng":"-58.522"}},{"city":"Capivari Do Sul, RS, Brazil","coords":{"lat":"-30.144","lng":"-50.544"}},{"city":"Machagai, Argentina","coords":{"lat":"-26.924","lng":"-60.047"}},{"city":"Ribeira do Pombal, BA, Brazil","coords":{"lat":"-10.838","lng":"-38.539"}},{"city":"Tres Pontas, MG, Brazil","coords":{"lat":"-21.364","lng":"-45.494"}},{"city":"Registro, SP, Brazil","coords":{"lat":"-24.499","lng":"-47.844"}},{"city":"Foz do Iguaçu, PR, Brazil","coords":{"lat":"-25.527","lng":"-54.543"}},{"city":"Neuquen, Argentina","coords":{"lat":"-38.951","lng":"-68.061"}},{"city":"Monteiro, PB, Brazil","coords":{"lat":"-7.892","lng":"-37.125"}},{"city":"Osasco, SP, Brazil","coords":{"lat":"-23.513","lng":"-46.758"}},{"city":"Godoy Moreira, PR, Brazil","coords":{"lat":"-24.187","lng":"-51.918"}},{"city":"Braco do Norte, SC, Brazil","coords":{"lat":"-28.283","lng":"-49.159"}},{"city":"Paysandú, Uruguay","coords":{"lat":"-32.294","lng":"-58.089"}},{"city":"Sao Mateus Do Sul, PR, Brazil","coords":{"lat":"-25.864","lng":"-50.381"}},{"city":"Caruaru, PE, Brazil","coords":{"lat":"-8.265","lng":"-35.955"}},{"city":"Sao Jose Do Rio Preto, SP, Brazil","coords":{"lat":"-20.844","lng":"-49.395"}},{"city":"Sete Lagoas, MG, Brazil","coords":{"lat":"-19.472","lng":"-44.258"}},{"city":"Paranatinga , MT, Brazil","coords":{"lat":"-14.43","lng":"-54.051"}},{"city":"São Paulo, SP, Brazil","coords":{"lat":"-23.563","lng":"-46.655"}},{"city":"Pitangui, MG, Brazil","coords":{"lat":"-19.683","lng":"-44.888"}},{"city":"Cicero Dantas, BA, Brazil","coords":{"lat":"-10.59","lng":"-38.38"}},{"city":"Pouso Alto, MG, Brazil","coords":{"lat":"-22.196","lng":"-44.973"}},{"city":"Ponta Grossa, PR, Brazil","coords":{"lat":"-25.095","lng":"-50.163"}},{"city":"Ararangua, SC, Brazil","coords":{"lat":"-28.936","lng":"-49.486"}},{"city":"Olinda, PE, Brazil","coords":{"lat":"-7.993","lng":"-34.897"}},{"city":"Major Gercino, SC, Brazil","coords":{"lat":"-27.418","lng":"-48.953"}},{"city":"Junin, BA, Argentina","coords":{"lat":"-34.58","lng":"-60.958"}},{"city":"Goiania, GO, Brazil","coords":{"lat":"-16.679","lng":"-49.256"}},{"city":"Santa Helena, MA, Brazil","coords":{"lat":"-3.517","lng":"-42.8"}},{"city":"Caico, RN, Brazil","coords":{"lat":"-6.46","lng":"-37.098"}},{"city":"Florencia, Colombia","coords":{"lat":"1.599","lng":"-75.6"}},{"city":"Chile Chico, Chile","coords":{"lat":"-46.543","lng":"-71.721"}},{"city":"Florencia , Colombia","coords":{"lat":"1.599","lng":"-75.6"}},{"city":"Igarape, Brazil","coords":{"lat":"-20.07","lng":"-44.302"}},{"city":"La Ligua, Chile","coords":{"lat":"-32.285","lng":"-71.464"}},{"city":"Margarita, Venezuela","coords":{"lat":"10.978","lng":"-64.08"}},{"city":"Azul, BA, Argentina","coords":{"lat":"-36.777","lng":"-59.855"}},{"city":"Quenuma, Argentina","coords":{"lat":"-36.569","lng":"-63.087"}},{"city":"Carmopolis, SE, Brazil","coords":{"lat":"-10.646","lng":"-36.984"}},{"city":"Butia, RS, Brazil","coords":{"lat":"-30.119","lng":"-51.964"}},{"city":"Cuiaba, MT, Brazil","coords":{"lat":"-15.599","lng":"-56.095"}},{"city":"Ponto Novo, BA, Brazil","coords":{"lat":"-10.869","lng":"-40.133"}},{"city":"Patos, PB, Brazil","coords":{"lat":"-7.026","lng":"-37.278"}},{"city":"San Juan Bautista, Paraguay","coords":{"lat":"-26.67","lng":"-57.143"}},{"city":"La Concordia, Ecuador","coords":{"lat":"0.012","lng":"-79.477"}},{"city":"Boa Viagem, CE, Brazil","coords":{"lat":"-5.127","lng":"-39.732"}},{"city":"Lima, Peru","coords":{"lat":"-12.056","lng":"-77.027"}},{"city":"Ji Parana, RO, Brazil","coords":{"lat":"-10.881","lng":"-61.941"}},{"city":"Caxias do Sul, RS, Brazil","coords":{"lat":"-29.168","lng":"-51.179"}},{"city":"Arequipa, Peru","coords":{"lat":"-16.401","lng":"-71.536"}},{"city":"Curitiba, PR, Brazil","coords":{"lat":"-25.44","lng":"-49.277"}},{"city":"Villa Huidobro, Argentina","coords":{"lat":"-34.838","lng":"-64.584"}},{"city":"Riobamba, Ecuador","coords":{"lat":"-1.664","lng":"-78.641"}},{"city":"Campinas, SP, Brazil","coords":{"lat":"-22.973","lng":"-47.121"}},{"city":"Caninde de Sao Francisco, SE, Brazil","coords":{"lat":"-9.648","lng":"-37.798"}},{"city":"Challapata, Bolivia","coords":{"lat":"-18.901","lng":"-66.772"}},{"city":"Cimitarra, Colombia","coords":{"lat":"6.352","lng":"-73.966"}},{"city":"Puan, Argentina","coords":{"lat":"-37.548","lng":"-62.768"}},{"city":"Caxias do Sul, RS, Brazil","coords":{"lat":"-29.168","lng":"-51.179"}},{"city":"Joaquin V. Gonzalez, Argentina","coords":{"lat":"-25.164","lng":"-64.302"}},{"city":"Pirassununga, Brazil","coords":{"lat":"-22.011","lng":"-47.415"}},{"city":"Tacuarembo, Uruguay","coords":{"lat":"-31.709","lng":"-55.983"}},{"city":"Riobamba, Ecuador","coords":{"lat":"-1.664","lng":"-78.641"}},{"city":"Totoro, Colombia","coords":{"lat":"2.549","lng":"-76.565"}},{"city":"Pitalito, Colombia","coords":{"lat":"1.85","lng":"-76.055"}},{"city":"Macedonia , SP, Brazil","coords":{"lat":"-20.145","lng":"-50.198"}},{"city":"Santo Antonio da Patrulha, RS, Brazil","coords":{"lat":"-29.825","lng":"-50.519"}},{"city":"Lago Puelo, Chubut, Argentina","coords":{"lat":"-42.064","lng":"-71.599"}},{"city":"Macaé, RJ, Brazil","coords":{"lat":"-22.372","lng":"-41.785"}},{"city":"Morteros, Cordoba, Argentina","coords":{"lat":"-30.71","lng":"-62.002"}},{"city":"Itabirinha, MG, Brazil","coords":{"lat":"-18.566","lng":"-41.233"}},{"city":"Puerto Madryn, Argentina","coords":{"lat":"-42.771","lng":"-65.049"}},{"city":"Junin De Los Andes, Argentina","coords":{"lat":"-39.942","lng":"-71.073"}},{"city":"San Estanislao, Paraguay","coords":{"lat":"-24.665","lng":"-56.448"}},{"city":"Moreira Sales, PR, Brazil","coords":{"lat":"-24.054","lng":"-53.007"}},{"city":"Joinville, SC, Brazil","coords":{"lat":"-26.305","lng":"-48.846"}},{"city":"Chillan, Chile","coords":{"lat":"-36.616","lng":"-72.088"}},{"city":"Sobral, CE, Brazil","coords":{"lat":"-3.68","lng":"-40.349"}},{"city":"Cruzeiro do Oeste, Brazil","coords":{"lat":"-23.78","lng":"-53.078"}},{"city":"General Pico, Argentina","coords":{"lat":"-35.66","lng":"-63.76"}},{"city":"Bage, RS, Brazil","coords":{"lat":"-31.324","lng":"-54.094"}},{"city":"Maringá, PR, Brazil","coords":{"lat":"-23.426","lng":"-51.937"}},{"city":"Bombinhas , SC, Brazil","coords":{"lat":"-27.15","lng":"-48.508"}},{"city":"Quilino, Argentina","coords":{"lat":"-30.21","lng":"-64.469"}},{"city":"Ressaquinha , MG, Brazil","coords":{"lat":"-21.065","lng":"-43.767"}},{"city":"Pitalito, Huila, Colombia","coords":{"lat":"1.85","lng":"-76.055"}},{"city":"Valle de La Pascua, Venezuela","coords":{"lat":"9.212","lng":"-66.005"}},{"city":"Iturama, MG, Brazil","coords":{"lat":"-19.727","lng":"-50.195"}},{"city":"Monte Aprazivel, Brazil","coords":{"lat":"-20.773","lng":"-49.711"}},{"city":"Orán, Argentina","coords":{"lat":"-23.132","lng":"-64.317"}},{"city":"Itabira, Brazil","coords":{"lat":"-19.635","lng":"-43.238"}},{"city":"São Paulo, SP, Brazil","coords":{"lat":"-23.563","lng":"-46.655"}},{"city":"Santa Catarina, SC, Brazil","coords":{"lat":"-27.6","lng":"-48.5"}},{"city":"Canada de Gomez, Argentina","coords":{"lat":"-32.812","lng":"-61.4"}},{"city":"Barra Do Corda, MA, Brazil","coords":{"lat":"-5.506","lng":"-45.235"}},{"city":"Catuipe, RS, Brazil","coords":{"lat":"-28.252","lng":"-54.013"}},{"city":"Acreuna, GO, Brazil","coords":{"lat":"-17.4","lng":"-50.377"}},{"city":"Jardim, CE, Brazil","coords":{"lat":"-7.58","lng":"-39.283"}},{"city":"Concepcion, Argentina","coords":{"lat":"-27.347","lng":"-65.594"}},{"city":"Estrela, RS, Brazil","coords":{"lat":"-29.501","lng":"-51.964"}},{"city":"Iepe, Brazil","coords":{"lat":"-22.66","lng":"-51.074"}},{"city":"Manduri, SP, Brazil","coords":{"lat":"-23.006","lng":"-49.321"}},{"city":"Novo Hamburgo, RS, Brazil","coords":{"lat":"-29.683","lng":"-51.128"}},{"city":"Resplendor, MG, Brazil","coords":{"lat":"-19.325","lng":"-41.252"}},{"city":"Sao Lourenco da Mata, PE, Brazil","coords":{"lat":"-7.993","lng":"-35.033"}},{"city":"Guaranda, Ecuador","coords":{"lat":"-1.591","lng":"-79"}},{"city":"Belem , PB, Brazil","coords":{"lat":"-6.704","lng":"-35.537"}},{"city":"Laprida, Argentina","coords":{"lat":"-36.033","lng":"-59.1"}},{"city":"Buritizeiro , MG, Brazil","coords":{"lat":"-17.37","lng":"-44.928"}},{"city":"Cataguases, MG, Brazil","coords":{"lat":"-21.388","lng":"-42.696"}},{"city":"Campinas, SP, Brazil","coords":{"lat":"-22.973","lng":"-47.121"}},{"city":"Ijui, RS, Brazil","coords":{"lat":"-28.389","lng":"-53.916"}},{"city":"Trujillo, VA, Venezuela","coords":{"lat":"10.549","lng":"-66.898"}},{"city":"Wanderlandia, TO, Brazil","coords":{"lat":"-6.853","lng":"-47.964"}},{"city":"São Paulo, SP, Brazil","coords":{"lat":"-23.563","lng":"-46.655"}},{"city":"Nao me Toque, RS, Brazil","coords":{"lat":"-28.462","lng":"-52.817"}},{"city":"Nova Andradina, MS, Brazil","coords":{"lat":"-22.247","lng":"-53.348"}},{"city":"Lincoln, Argentina","coords":{"lat":"-34.872","lng":"-61.52"}},{"city":"Coronel Du Graty, Argentina","coords":{"lat":"-27.683","lng":"-60.908"}},{"city":"João Pessoa, PB, Brazil","coords":{"lat":"-7.115","lng":"-34.861"}},{"city":"Gama, DF, Brazil","coords":{"lat":"-16.028","lng":"-48.054"}},{"city":"Senhor do Bonfim, BA, Brazil","coords":{"lat":"-10.457","lng":"-40.194"}},{"city":"Quilombo, SC, Brazil","coords":{"lat":"-26.73","lng":"-52.72"}},{"city":"Ibiruba, RS, Brazil","coords":{"lat":"-28.64","lng":"-53.095"}},{"city":"Rio d'Oeste, SC, Brazil","coords":{"lat":"-27.195","lng":"-49.793"}},{"city":"Bom Jesus De Goias, GO, Brazil","coords":{"lat":"-18.218","lng":"-49.74"}},{"city":"Buenaventura, Colombia","coords":{"lat":"3.883","lng":"-77.047"}},{"city":"Guaramirim, SC, Brazil","coords":{"lat":"-26.477","lng":"-49.001"}},{"city":"Formosa do Oeste, PR, Brazil","coords":{"lat":"-24.298","lng":"-53.314"}},{"city":"Cafayate, Argentina","coords":{"lat":"-26.077","lng":"-65.984"}},{"city":"Palmas, TO, Brazil","coords":{"lat":"-10.23","lng":"-48.335"}},{"city":"Bastos, SP, Brazil","coords":{"lat":"-21.922","lng":"-50.733"}},{"city":"Macas, Ecuador","coords":{"lat":"-2.314","lng":"-78.126"}},{"city":"Porto Alegre, RS, Brazil","coords":{"lat":"-30.034","lng":"-51.228"}},{"city":"Nilopolis , RJ, Brazil","coords":{"lat":"-22.802","lng":"-43.422"}},{"city":"Allen, Argentina","coords":{"lat":"-38.976","lng":"-67.83"}},{"city":"Cuiaba, MT, Brazil","coords":{"lat":"-15.599","lng":"-56.095"}},{"city":"Criciúma, SC, Brazil","coords":{"lat":"-28.678","lng":"-49.372"}},{"city":"Rio de Janeiro, RJ, Brazil","coords":{"lat":"-22.912","lng":"-43.175"}},{"city":"Pergamino, Argentina","coords":{"lat":"-33.896","lng":"-60.567"}},{"city":"Sao Jose dos Pinhais, PR, Brazil","coords":{"lat":"-25.532","lng":"-49.083"}},{"city":"Porto Alegre , RS, Brazil","coords":{"lat":"-30.034","lng":"-51.228"}},{"city":"Rondonópolis, MT, Brazil","coords":{"lat":"-16.443","lng":"-54.646"}},{"city":"Ubata, BA, Brazil","coords":{"lat":"-14.209","lng":"-39.526"}},{"city":"Guarapuava, PR, Brazil","coords":{"lat":"-25.393","lng":"-51.456"}},{"city":"Luziania, GO, Brazil","coords":{"lat":"-16.266","lng":"-47.867"}},{"city":"Itamari, BA, Brazil","coords":{"lat":"-13.779","lng":"-39.684"}},{"city":"Salinopolis, PA, Brazil","coords":{"lat":"-0.652","lng":"-47.324"}},{"city":"Ribeira do Pombal, BA, Brazil","coords":{"lat":"-10.838","lng":"-38.539"}},{"city":"Patos, PB, Brazil","coords":{"lat":"-7.026","lng":"-37.278"}},{"city":"Cerro Largo, RS, Brazil","coords":{"lat":"-28.147","lng":"-54.734"}},{"city":"San Antonio del Tachira, Venezuela","coords":{"lat":"7.814","lng":"-72.447"}},{"city":"Pergamino, Argentina","coords":{"lat":"-33.896","lng":"-60.567"}},{"city":"Capilla Del Monte, Argentina","coords":{"lat":"-30.857","lng":"-64.53"}},{"city":"Cuiabá, MT, Brazil","coords":{"lat":"-15.599","lng":"-56.095"}},{"city":"Rio de Janeiro, RJ, Brazil","coords":{"lat":"-22.912","lng":"-43.175"}},{"city":"Canela , RS, Brazil","coords":{"lat":"-29.362","lng":"-50.806"}},{"city":"Artigas, Uruguay","coords":{"lat":"-30.409","lng":"-56.476"}},{"city":"Alamor, Ecuador","coords":{"lat":"-4.018","lng":"-80.021"}},{"city":"Ciudad Bolívar, Venezuela","coords":{"lat":"8.144","lng":"-63.551"}},{"city":"Manaus, AM, Brazil","coords":{"lat":"-3.123","lng":"-60.021"}},{"city":"Pires do Rio, GO, Brazil","coords":{"lat":"-17.304","lng":"-48.282"}},{"city":"Recife, PE, Brazil","coords":{"lat":"-8.063","lng":"-34.873"}},{"city":"Sincelejo, Colombia","coords":{"lat":"9.301","lng":"-75.395"}},{"city":"Santa Cruz do Rio Pardo, SP, Brazil","coords":{"lat":"-22.892","lng":"-49.626"}},{"city":"Coro, Venezuela","coords":{"lat":"11.424","lng":"-69.668"}},{"city":"Agudo, RS, Brazil","coords":{"lat":"-29.644","lng":"-53.248"}},{"city":"Alta Floresta, Brazil","coords":{"lat":"-9.876","lng":"-56.086"}},{"city":"Azogues, Ecuador","coords":{"lat":"-2.704","lng":"-78.814"}},{"city":"Goiania, GO, Brazil","coords":{"lat":"-16.679","lng":"-49.256"}},{"city":"Puyo, Ecuador","coords":{"lat":"-1.471","lng":"-77.997"}},{"city":"Presidente Olegario, MG, Brazil","coords":{"lat":"-18.415","lng":"-46.421"}},{"city":"Taua, CE, Brazil","coords":{"lat":"-6.002","lng":"-40.3"}},{"city":"Porto Velho, RO, Brazil","coords":{"lat":"-8.762","lng":"-63.902"}},{"city":"Rafaela, Argentina","coords":{"lat":"-31.253","lng":"-61.491"}},{"city":"Pedro Juan Caballero, Paraguay","coords":{"lat":"-22.559","lng":"-55.731"}},{"city":"Sao Marcos, RS, Brazil","coords":{"lat":"-28.968","lng":"-51.069"}},{"city":"Iguatu, CE, Brazil","coords":{"lat":"-6.349","lng":"-39.307"}},{"city":"Belo Horizonte, MG, Brazil","coords":{"lat":"-19.969","lng":"-43.946"}},{"city":"Porto Velho, RO, Brazil","coords":{"lat":"-8.762","lng":"-63.902"}},{"city":"Baia Formosa, RN, Brazil","coords":{"lat":"-6.371","lng":"-35.005"}},{"city":"Mostardas, RS, Brazil","coords":{"lat":"-31.105","lng":"-50.922"}},{"city":"Votorantim, SP, Brazil","coords":{"lat":"-23.538","lng":"-47.427"}},{"city":"Barra Bonita, SP, Brazil","coords":{"lat":"-22.471","lng":"-48.569"}},{"city":"Lages , SC, Brazil","coords":{"lat":"-27.82","lng":"-50.321"}},{"city":"Chorrocho, BA, Brazil","coords":{"lat":"-8.979","lng":"-39.101"}},{"city":"Maribondo, AL, Brazil","coords":{"lat":"-9.582","lng":"-36.307"}},{"city":"Coro, Venezuela","coords":{"lat":"11.424","lng":"-69.668"}},{"city":"Salinas, Bolívar, Ecuador","coords":{"lat":"-1.369","lng":"-79.088"}},{"city":"Boa Vista do Burica, RS, Brazil","coords":{"lat":"-27.672","lng":"-54.109"}},{"city":"Huila, Colombia","coords":{"lat":"2.557","lng":"-75.601"}},{"city":"Belém, PA, Brazil","coords":{"lat":"-1.448","lng":"-48.473"}},{"city":"San Ignacio, Chile","coords":{"lat":"-36.803","lng":"-72.027"}},{"city":"Ibiassuce , BA, Brazil","coords":{"lat":"-14.271","lng":"-42.257"}},{"city":"Tangara Da Serra, MT, Brazil","coords":{"lat":"-14.631","lng":"-57.507"}},{"city":"Capanema, PR, Brazil","coords":{"lat":"-25.68","lng":"-53.803"}},{"city":"Vacaria, RS, Brazil","coords":{"lat":"-28.519","lng":"-50.922"}},{"city":"Ipatinga, MG, Brazil","coords":{"lat":"-19.468","lng":"-42.537"}},{"city":"Itambacuri, MG, Brazil","coords":{"lat":"-18.029","lng":"-41.677"}},{"city":"Passos, MG, Brazil","coords":{"lat":"-20.721","lng":"-46.61"}},{"city":"Vale Do Paraiso, RO, Brazil","coords":{"lat":"-10.428","lng":"-62.13"}},{"city":"Catrilo, La Pampa, Argentina","coords":{"lat":"-36.409","lng":"-63.425"}},{"city":"São Paulo, SP, Brazil","coords":{"lat":"-23.563","lng":"-46.655"}},{"city":"Iracemapolis, SP, Brazil","coords":{"lat":"-22.585","lng":"-47.515"}},{"city":"Americana, SP, Brazil","coords":{"lat":"-22.742","lng":"-47.327"}},{"city":"Palmeira das Missoes, RS, Brazil","coords":{"lat":"-27.888","lng":"-53.306"}},{"city":"Curitiba, PR, Brazil","coords":{"lat":"-25.44","lng":"-49.277"}},{"city":"Pindobacu, BA, Brazil","coords":{"lat":"-10.744","lng":"-40.368"}},{"city":"Lima, Peru","coords":{"lat":"-12.056","lng":"-77.027"}},{"city":"Chivilcoy, Argentina","coords":{"lat":"-34.883","lng":"-60.019"}},{"city":"Ijaci, MG, Brazil","coords":{"lat":"-21.175","lng":"-44.924"}},{"city":"Pinamar, Argentina","coords":{"lat":"-37.105","lng":"-56.868"}},{"city":"Pocoes, BA, Brazil","coords":{"lat":"-14.523","lng":"-40.371"}},{"city":"Perdoes, MG, Brazil","coords":{"lat":"-21.092","lng":"-45.089"}},{"city":"Guarapari, ES, Brazil","coords":{"lat":"-20.671","lng":"-40.512"}},{"city":"Trujillo, Colombia","coords":{"lat":"4.207","lng":"-76.323"}},{"city":"Blumenau, SC, Brazil","coords":{"lat":"-26.919","lng":"-49.066"}},{"city":"Ospino, Venezuela","coords":{"lat":"9.301","lng":"-69.454"}},{"city":"Florida, Uruguay","coords":{"lat":"-34.094","lng":"-56.227"}},{"city":"Caruaru, PE, Brazil","coords":{"lat":"-8.265","lng":"-35.955"}},{"city":"Oruro, Oruro, Bolivia","coords":{"lat":"-17.948","lng":"-67.104"}},{"city":"San Luis, Argentina","coords":{"lat":"-33.27","lng":"-66.345"}},{"city":"Quibdo, Colombia","coords":{"lat":"5.692","lng":"-76.657"}},{"city":"Barrancabermeja, Colombia","coords":{"lat":"7.07","lng":"-73.863"}},{"city":"Contagem, MG, Brazil","coords":{"lat":"-19.927","lng":"-44.044"}},{"city":"Governador Valadares, MG, Brazil","coords":{"lat":"-18.856","lng":"-41.983"}},{"city":"Montenegro, RS, Brazil","coords":{"lat":"-29.686","lng":"-51.467"}},{"city":"Junin, Peru","coords":{"lat":"-11.537","lng":"-74.884"}},{"city":"Rio Grande, RS, Brazil","coords":{"lat":"-32.033","lng":"-52.098"}},{"city":"Rio do Sul, SC, Brazil","coords":{"lat":"-27.214","lng":"-49.644"}},{"city":"Rio Verde, GO, Brazil","coords":{"lat":"-17.8","lng":"-50.936"}},{"city":"Salvador, BA, Brazil","coords":{"lat":"-12.971","lng":"-38.513"}},{"city":"Seabra, BA, Brazil","coords":{"lat":"-12.418","lng":"-41.77"}},{"city":"Cumana, Venezuela","coords":{"lat":"10.467","lng":"-64.177"}},{"city":"Miracema , Brazil","coords":{"lat":"-21.412","lng":"-42.197"}},{"city":"Piracanjuba, GO, Brazil","coords":{"lat":"-17.3","lng":"-49.027"}},{"city":"Bom Sucesso Do Sul, PR, Brazil","coords":{"lat":"-26.076","lng":"-52.835"}},{"city":"Porto Velho, RO, Brazil","coords":{"lat":"-8.762","lng":"-63.902"}},{"city":"Punto Fijo, Venezuela","coords":{"lat":"11.699","lng":"-70.199"}},{"city":"Cuenca, Ecuador","coords":{"lat":"-2.893","lng":"-78.994"}},{"city":"Terra Rica, PR, Brazil","coords":{"lat":"-22.709","lng":"-52.62"}},{"city":"Desterro, PB, Brazil","coords":{"lat":"-7.268","lng":"-37.115"}},{"city":"Asuncion, Paraguay","coords":{"lat":"-25.298","lng":"-57.623"}},{"city":"Juazeiro, BA, Brazil","coords":{"lat":"-9.443","lng":"-40.516"}},{"city":"Recife, PE, Brazil","coords":{"lat":"-8.063","lng":"-34.873"}},{"city":"Timoteo, MG, Brazil","coords":{"lat":"-19.544","lng":"-42.653"}},{"city":"Bahía Blanca, Argentina","coords":{"lat":"-38.706","lng":"-62.218"}},{"city":"Varzea Alegre, CE, Brazil","coords":{"lat":"-6.795","lng":"-39.3"}},{"city":"Sorocaba, SP, Brazil","coords":{"lat":"-23.508","lng":"-47.512"}},{"city":"Los Angeles, Chile","coords":{"lat":"-37.473","lng":"-72.354"}},{"city":"Florianópolis, SC, Brazil","coords":{"lat":"-27.598","lng":"-48.548"}},{"city":"Fortaleza, CE, Brazil","coords":{"lat":"-3.718","lng":"-38.543"}},{"city":"Barinas, Venezuela","coords":{"lat":"8.631","lng":"-70.205"}},{"city":"São José dos Campos, SP, Brazil","coords":{"lat":"-23.259","lng":"-45.883"}},{"city":"Curitiba, PR, Brazil","coords":{"lat":"-25.44","lng":"-49.277"}},{"city":"Cuenca, Ecuador","coords":{"lat":"-2.893","lng":"-78.994"}},{"city":"Paysandú, Uruguay","coords":{"lat":"-32.294","lng":"-58.089"}},{"city":"Ibarra, Ecuador","coords":{"lat":"0.365","lng":"-78.106"}},{"city":"Macaé, RJ, Brazil","coords":{"lat":"-22.372","lng":"-41.785"}},{"city":"Salvador, BA, Brazil","coords":{"lat":"-12.971","lng":"-38.513"}},{"city":"Garanhuns, PE, Brazil","coords":{"lat":"-8.885","lng":"-36.467"}},{"city":"Caruaru, PE, Brazil","coords":{"lat":"-8.265","lng":"-35.955"}},{"city":"Santa Helena, MA, Brazil","coords":{"lat":"-3.517","lng":"-42.8"}},{"city":"Campinas, SP, Brazil","coords":{"lat":"-22.973","lng":"-47.121"}},{"city":"Brasília, DF, Brazil","coords":{"lat":"-15.784","lng":"-47.881"}},{"city":"Campos dos Goytacazes, RJ, Brazil","coords":{"lat":"-21.755","lng":"-41.324"}},{"city":"San Juan, Argentina","coords":{"lat":"-31.555","lng":"-68.522"}},{"city":"Curitiba, PR, Brazil","coords":{"lat":"-25.44","lng":"-49.277"}},{"city":"Esquel, Argentina","coords":{"lat":"-42.911","lng":"-71.319"}},{"city":"Agudo, RS, Brazil","coords":{"lat":"-29.644","lng":"-53.248"}},{"city":"Villarrica, Paraguay","coords":{"lat":"-25.782","lng":"-56.447"}},{"city":"Belém, PA, Brazil","coords":{"lat":"-1.448","lng":"-48.473"}},{"city":"Campo Bom, RS, Brazil","coords":{"lat":"-29.588","lng":"-51.088"}},{"city":"Ponta Grossa, PR, Brazil","coords":{"lat":"-25.095","lng":"-50.163"}},{"city":"Teresina, PI, Brazil","coords":{"lat":"-5.089","lng":"-42.802"}},{"city":"Sorocaba, SP, Brazil","coords":{"lat":"-23.508","lng":"-47.512"}},{"city":"Londrina, PR, Brazil","coords":{"lat":"-23.307","lng":"-51.153"}},{"city":"Rio de Janeiro, RJ, Brazil","coords":{"lat":"-22.912","lng":"-43.175"}},{"city":"Natal, RN, Brazil","coords":{"lat":"-5.795","lng":"-35.212"}},{"city":"Ipatinga, MG, Brazil","coords":{"lat":"-19.468","lng":"-42.537"}},{"city":"Manaus, AM, Brazil","coords":{"lat":"-3.123","lng":"-60.021"}},{"city":"Barreiras, BA, Brazil","coords":{"lat":"-12.148","lng":"-44.992"}},{"city":"Presidente Olegario, MG, Brazil","coords":{"lat":"-18.415","lng":"-46.421"}},{"city":"Paramaribo, Suriname","coords":{"lat":"5.82","lng":"-55.165"}},{"city":"Goiania, GO, Brazil","coords":{"lat":"-16.679","lng":"-49.256"}},{"city":"Palmas, TO, Brazil","coords":{"lat":"-10.23","lng":"-48.335"}},{"city":"Florida, Argentina","coords":{"lat":"-23.017","lng":"-64.133"}},{"city":"São Paulo, SP, Brazil","coords":{"lat":"-23.563","lng":"-46.655"}},{"city":"Goiania, GO, Brazil","coords":{"lat":"-16.679","lng":"-49.256"}},{"city":"Villa Mercedes, Argentina","coords":{"lat":"-33.663","lng":"-65.459"}},{"city":"San Antonio, Paraguay","coords":{"lat":"-25.36","lng":"-57.615"}},{"city":"Belo Jardim, PE, Brazil","coords":{"lat":"-8.338","lng":"-36.426"}},{"city":"Serra Branca, PB, Brazil","coords":{"lat":"-7.481","lng":"-36.666"}},{"city":"Santiago del Estero, Argentina","coords":{"lat":"-27.805","lng":"-64.261"}},{"city":"Campo Alegre , SC, Brazil","coords":{"lat":"-26.193","lng":"-49.266"}},{"city":"Caazapa, Paraguay","coords":{"lat":"-26.198","lng":"-56.373"}},{"city":"Nova Olinda, MA, Brazil","coords":{"lat":"-5.066","lng":"-45.284"}},{"city":"Baependi, Brazil","coords":{"lat":"-21.938","lng":"-44.875"}},{"city":"Espigao Alto Do Iguacu, PR, Brazil","coords":{"lat":"-25.422","lng":"-52.835"}},{"city":"Mercedes, Argentina","coords":{"lat":"-34.664","lng":"-59.411"}},{"city":"Goiania, GO, Brazil","coords":{"lat":"-16.679","lng":"-49.256"}},{"city":"Boa Vista da Aparecida, PR, Brazil","coords":{"lat":"-25.436","lng":"-53.409"}},{"city":"Pompeu, MG, Brazil","coords":{"lat":"-19.226","lng":"-44.994"}},{"city":"Barbacena, MG, Brazil","coords":{"lat":"-21.214","lng":"-43.768"}},{"city":"São Paulo, SP, Brazil","coords":{"lat":"-23.563","lng":"-46.655"}},{"city":"Goiatuba, GO, Brazil","coords":{"lat":"-18.013","lng":"-49.37"}},{"city":"Reconquista, Santa Fe, Argentina","coords":{"lat":"-29.14","lng":"-59.656"}},{"city":"Candelaria, RS, Brazil","coords":{"lat":"-29.681","lng":"-52.797"}},{"city":"Paranaiba, MS, Brazil","coords":{"lat":"-19.675","lng":"-51.192"}},{"city":"Fortaleza de Minas, MG, Brazil","coords":{"lat":"-20.848","lng":"-46.712"}},{"city":"Boca de Aragua, Venezuela","coords":{"lat":"10.117","lng":"-65.983"}},{"city":"Tranqueras, Uruguay","coords":{"lat":"-31.167","lng":"-55.75"}},{"city":"Ubirata, PR, Brazil","coords":{"lat":"-24.543","lng":"-52.989"}},{"city":"Araras, SP, Brazil","coords":{"lat":"-22.35","lng":"-47.39"}},{"city":"Fernandopolis , SP, Brazil","coords":{"lat":"-20.284","lng":"-50.246"}},{"city":"Pirassununga, SP, Brazil","coords":{"lat":"-22.011","lng":"-47.415"}},{"city":"Paz de Ariporo, Colombia","coords":{"lat":"5.899","lng":"-71.937"}},{"city":"Sorriso, MT, Brazil","coords":{"lat":"-12.55","lng":"-55.715"}},{"city":"Jundiaí, SP, Brazil","coords":{"lat":"-23.188","lng":"-46.891"}},{"city":"Belem, PA, Brazil","coords":{"lat":"-1.448","lng":"-48.473"}},{"city":"Sobral, CE, Brazil","coords":{"lat":"-3.68","lng":"-40.349"}},{"city":"Lorena, SP, Brazil","coords":{"lat":"-22.744","lng":"-45.113"}},{"city":"Ipatinga, MG, Brazil","coords":{"lat":"-19.468","lng":"-42.537"}},{"city":"Cosmopolis, SP, Brazil","coords":{"lat":"-22.643","lng":"-47.195"}},{"city":"San Jose de Mayo, Uruguay","coords":{"lat":"-34.344","lng":"-56.714"}},{"city":"Parauna, GO, Brazil","coords":{"lat":"-16.947","lng":"-50.449"}},{"city":"Santa Cruz do Sul, RS, Brazil","coords":{"lat":"-29.713","lng":"-52.43"}},{"city":"Goiania, GO, Brazil","coords":{"lat":"-16.679","lng":"-49.256"}},{"city":"Nova Russas, CE, Brazil","coords":{"lat":"-4.706","lng":"-40.56"}},{"city":"Guarani, MG, Brazil","coords":{"lat":"-21.357","lng":"-43.05"}},{"city":"Piracanjuba, GO, Brazil","coords":{"lat":"-17.3","lng":"-49.027"}},{"city":"Santa Teresita, Argentina","coords":{"lat":"-36.543","lng":"-56.702"}},{"city":"Paulista, PE, Brazil","coords":{"lat":"-7.944","lng":"-34.866"}},{"city":"Potosí, Bolivia","coords":{"lat":"-19.584","lng":"-65.764"}},{"city":"Paulistana, PI, Brazil","coords":{"lat":"-8.134","lng":"-41.146"}},{"city":"Pinheiro, MA, Brazil","coords":{"lat":"-3.917","lng":"-45.083"}},{"city":"Toledo, PR, Brazil","coords":{"lat":"-24.719","lng":"-53.738"}},{"city":"Rio Branco, AC, Brazil","coords":{"lat":"-9.974","lng":"-67.808"}},{"city":"Presidente Getulio, SC, Brazil","coords":{"lat":"-27.045","lng":"-49.623"}},{"city":"Criciuma , SC, Brazil","coords":{"lat":"-28.678","lng":"-49.372"}},{"city":"São Paulo, SP, Brazil","coords":{"lat":"-23.563","lng":"-46.655"}},{"city":"San Juan, Argentina","coords":{"lat":"-31.555","lng":"-68.522"}},{"city":"Caarapo, MS, Brazil","coords":{"lat":"-22.637","lng":"-54.825"}},{"city":"Fama, MG, Brazil","coords":{"lat":"-21.407","lng":"-45.831"}},{"city":"Socorro, SP, Brazil","coords":{"lat":"-22.582","lng":"-46.525"}},{"city":"Santa Clara Do Sul, RS, Brazil","coords":{"lat":"-29.468","lng":"-52.09"}},{"city":"Itajuipe, BA, Brazil","coords":{"lat":"-14.673","lng":"-39.376"}},{"city":"Macas, Ecuador","coords":{"lat":"-2.314","lng":"-78.126"}},{"city":"Goiania, GO, Brazil","coords":{"lat":"-16.679","lng":"-49.256"}},{"city":"Goiania, GO, Brazil","coords":{"lat":"-16.679","lng":"-49.256"}},{"city":"Uruguay, Uruguay","coords":{"lat":"-32.483","lng":"-53.517"}},{"city":"Sao Miguel D'oeste, SC, Brazil","coords":{"lat":"-26.725","lng":"-53.522"}},{"city":"Punto Fijo, Venezuela","coords":{"lat":"11.699","lng":"-70.199"}},{"city":"Tinaquillo, Cojedes, Venezuela","coords":{"lat":"9.911","lng":"-68.309"}},{"city":"Itapeva, MG, Brazil","coords":{"lat":"-22.77","lng":"-46.222"}},{"city":"Serra Talhada, PE, Brazil","coords":{"lat":"-7.985","lng":"-38.293"}},{"city":"São Paulo, SP, Brazil","coords":{"lat":"-23.563","lng":"-46.655"}},{"city":"Ipuiuna, Brazil","coords":{"lat":"-22.098","lng":"-46.191"}},{"city":"Boa Vista, RR, Brazil","coords":{"lat":"2.819","lng":"-60.671"}},{"city":"Porto Alegre, RS, Brazil","coords":{"lat":"-30.034","lng":"-51.228"}},{"city":"Hulha Negra, RS, Brazil","coords":{"lat":"-31.403","lng":"-53.871"}},{"city":"Turiacu, MA, Brazil","coords":{"lat":"-1.66","lng":"-45.381"}},{"city":"Zanja Pyta, Paraguay","coords":{"lat":"-22.633","lng":"-55.667"}},{"city":"Dourados, MS, Brazil","coords":{"lat":"-22.222","lng":"-54.807"}},{"city":"Bebedouro, SP, Brazil","coords":{"lat":"-20.949","lng":"-48.483"}},{"city":"Joinville, SC, Brazil","coords":{"lat":"-26.305","lng":"-48.846"}},{"city":"Venado Tuerto, Argentina","coords":{"lat":"-33.746","lng":"-61.97"}},{"city":"Bebedouro, SP, Brazil","coords":{"lat":"-20.949","lng":"-48.483"}},{"city":"Rio Grande, RS, Brazil","coords":{"lat":"-32.033","lng":"-52.098"}},{"city":"Vitória, ES, Brazil","coords":{"lat":"-20.317","lng":"-40.293"}},{"city":"Erechim, RS, Brazil","coords":{"lat":"-27.637","lng":"-52.308"}},{"city":"Pergamino, Argentina","coords":{"lat":"-33.896","lng":"-60.567"}},{"city":"Passos Maia, SC, Brazil","coords":{"lat":"-26.781","lng":"-52.065"}},{"city":"Camargo, Bolivia","coords":{"lat":"-20.368","lng":"-65.125"}},{"city":"Sao Lourenco Do Sul, RS, Brazil","coords":{"lat":"-31.343","lng":"-51.998"}},{"city":"Rio de Janeiro, RJ, Brazil","coords":{"lat":"-22.912","lng":"-43.175"}},{"city":"Cajamarca, Peru","coords":{"lat":"-7.155","lng":"-78.521"}},{"city":"Bezerros, PE, Brazil","coords":{"lat":"-8.236","lng":"-35.745"}},{"city":"Timbauba, PE, Brazil","coords":{"lat":"-7.514","lng":"-35.316"}},{"city":"Sacramento , MG, Brazil","coords":{"lat":"-19.867","lng":"-47.443"}},{"city":"Corinto, MG, Brazil","coords":{"lat":"-18.368","lng":"-44.457"}},{"city":"São Paulo, SP, Brazil","coords":{"lat":"-23.563","lng":"-46.655"}},{"city":"Limoeiro do Norte, CE, Brazil","coords":{"lat":"-5.142","lng":"-38.093"}},{"city":"Guadalupe, Santander, Colombia","coords":{"lat":"6.23","lng":"-73.389"}},{"city":"Loja, Ecuador","coords":{"lat":"-4.022","lng":"-79.203"}},{"city":"San Lorenzo, Paraguay","coords":{"lat":"-25.343","lng":"-57.517"}},{"city":"San Francisco, Colombia","coords":{"lat":"5.887","lng":"-74.995"}},{"city":"Ovalle, Chile","coords":{"lat":"-30.599","lng":"-71.199"}},{"city":"Cambara, PR, Brazil","coords":{"lat":"-23.036","lng":"-50.069"}},{"city":"Sao Gabriel do Oeste, MS, Brazil","coords":{"lat":"-19.398","lng":"-54.57"}},{"city":"Salvador, BA, Brazil","coords":{"lat":"-12.971","lng":"-38.513"}},{"city":"Salvador, BA, Brazil","coords":{"lat":"-12.971","lng":"-38.513"}},{"city":"Lima, Peru","coords":{"lat":"-12.056","lng":"-77.027"}},{"city":"Tena, Ecuador","coords":{"lat":"-0.952","lng":"-77.855"}},{"city":"Fortaleza, CE, Brazil","coords":{"lat":"-3.718","lng":"-38.543"}},{"city":"Altinopolis, SP, Brazil","coords":{"lat":"-21.023","lng":"-47.374"}},{"city":"Durazno, Uruguay","coords":{"lat":"-33.377","lng":"-56.533"}},{"city":"Guanhaes, MG, Brazil","coords":{"lat":"-18.771","lng":"-42.932"}},{"city":"Muniz Freire , ES, Brazil","coords":{"lat":"-20.463","lng":"-41.415"}},{"city":"São Paulo, SP, Brazil","coords":{"lat":"-23.563","lng":"-46.655"}},{"city":"Pinhalzinho, SC, Brazil","coords":{"lat":"-26.846","lng":"-52.988"}},{"city":"Monte Carmelo, MG, Brazil","coords":{"lat":"-18.732","lng":"-47.5"}},{"city":"Eirunepe, Brazil","coords":{"lat":"-6.664","lng":"-69.867"}},{"city":"Ipu, CE, Brazil","coords":{"lat":"-4.318","lng":"-40.706"}},{"city":"Pomerode, SC, Brazil","coords":{"lat":"-26.733","lng":"-49.174"}},{"city":"Itapiuna, CE, Brazil","coords":{"lat":"-4.542","lng":"-38.964"}},{"city":"Neiva, Colombia","coords":{"lat":"2.928","lng":"-75.279"}},{"city":"Pirangi, SP, Brazil","coords":{"lat":"-21.095","lng":"-48.664"}},{"city":"Necochea, Argentina","coords":{"lat":"-38.558","lng":"-58.758"}},{"city":"Eunapolis , BA, Brazil","coords":{"lat":"-16.368","lng":"-39.583"}},{"city":"Santa Barbara d'Oeste, SP, Brazil","coords":{"lat":"-22.765","lng":"-47.405"}},{"city":"Ponta Grossa, PR, Brazil","coords":{"lat":"-25.095","lng":"-50.163"}},{"city":"Jaguaruana, CE, Brazil","coords":{"lat":"-4.837","lng":"-37.782"}},{"city":"Boa Viagem, CE, Brazil","coords":{"lat":"-5.127","lng":"-39.732"}},{"city":"Bahía Blanca, Argentina","coords":{"lat":"-38.706","lng":"-62.218"}},{"city":"Inhauma, MG, Brazil","coords":{"lat":"-19.493","lng":"-44.39"}},{"city":"João Pessoa, PB, Brazil","coords":{"lat":"-7.115","lng":"-34.861"}},{"city":"Canoas, RS, Brazil","coords":{"lat":"-29.915","lng":"-51.183"}},{"city":"Montes Claros, Brazil","coords":{"lat":"-16.714","lng":"-43.844"}},{"city":"Telemaco Borba, PR, Brazil","coords":{"lat":"-24.331","lng":"-50.629"}},{"city":"Ivinhema, MS, Brazil","coords":{"lat":"-22.314","lng":"-53.818"}},{"city":"Lamarao, BA, Brazil","coords":{"lat":"-11.778","lng":"-38.909"}},{"city":"San Rafael, Argentina","coords":{"lat":"-34.603","lng":"-68.318"}},{"city":"Sao Jose do Ouro, RS, Brazil","coords":{"lat":"-27.772","lng":"-51.598"}},{"city":"Catole, PB, Brazil","coords":{"lat":"-7.583","lng":"-37.95"}},{"city":"São Domingos, SE, Brazil","coords":{"lat":"-10.792","lng":"-37.569"}},{"city":"Santana do Itarare, PR, Brazil","coords":{"lat":"-23.759","lng":"-49.633"}},{"city":"Rio de Janeiro, RJ, Brazil","coords":{"lat":"-22.912","lng":"-43.175"}},{"city":"Paranaiba , MS, Brazil","coords":{"lat":"-19.675","lng":"-51.192"}},{"city":"São Paulo, SP, Brazil","coords":{"lat":"-23.563","lng":"-46.655"}},{"city":"Arroyito, Argentina","coords":{"lat":"-31.425","lng":"-63.05"}},{"city":"Santa Cruz de la Sierra, Bolivia","coords":{"lat":"-17.779","lng":"-63.18"}},{"city":"Riobamba, Ecuador","coords":{"lat":"-1.664","lng":"-78.641"}},{"city":"Soledade, RS, Brazil","coords":{"lat":"-28.819","lng":"-52.51"}},{"city":"Rio de Janeiro, RJ, Brazil","coords":{"lat":"-22.912","lng":"-43.175"}},{"city":"San Martin de los Andes, Argentina","coords":{"lat":"-40.154","lng":"-71.352"}},{"city":"Jaboatao dos Guararapes, PE, Brazil","coords":{"lat":"-8.18","lng":"-34.947"}},{"city":"Alegrete, RS, Brazil","coords":{"lat":"-29.784","lng":"-55.791"}},{"city":"Maceió, AL, Brazil","coords":{"lat":"-9.667","lng":"-35.735"}},{"city":"Jaú, SP, Brazil","coords":{"lat":"-22.282","lng":"-48.553"}},{"city":"João Pessoa, PB, Brazil","coords":{"lat":"-7.115","lng":"-34.861"}},{"city":"Monte Azul Paulista, SP, Brazil","coords":{"lat":"-20.906","lng":"-48.642"}},{"city":"la Paz, Bolivia","coords":{"lat":"-16.5","lng":"-68.15"}},{"city":"Santa Isabel do Ivai, PR, Brazil","coords":{"lat":"-23.003","lng":"-53.199"}},{"city":"Arapongas, PR, Brazil","coords":{"lat":"-23.496","lng":"-51.43"}},{"city":"Salto, Uruguay","coords":{"lat":"-31.411","lng":"-57.973"}},{"city":"Tupã, SP, Brazil","coords":{"lat":"-21.929","lng":"-50.516"}},{"city":"Osvaldo Cruz, SP, Brazil","coords":{"lat":"-21.797","lng":"-50.872"}},{"city":"Conceicao da Barra, ES, Brazil","coords":{"lat":"-18.584","lng":"-39.734"}},{"city":"Santo Angelo, RS, Brazil","coords":{"lat":"-28.3","lng":"-54.25"}},{"city":"Porto Alegre, RS, Brazil","coords":{"lat":"-30.034","lng":"-51.228"}},{"city":"Porangatu, GO, Brazil","coords":{"lat":"-13.431","lng":"-49.143"}},{"city":"Miraflores, Peru","coords":{"lat":"-12.11","lng":"-77.036"}},{"city":"Arequipa, Peru","coords":{"lat":"-16.401","lng":"-71.536"}},{"city":"Arrecifes, Argentina","coords":{"lat":"-34.074","lng":"-60.087"}},{"city":"Montividiu, Brazil","coords":{"lat":"-17.444","lng":"-51.173"}},{"city":"Birigui, SP, Brazil","coords":{"lat":"-21.289","lng":"-50.34"}},{"city":"Ponta Grossa, PR, Brazil","coords":{"lat":"-25.095","lng":"-50.163"}},{"city":"Jau, PA, Brazil","coords":{"lat":"-3.979","lng":"-53.07"}},{"city":"Nova Prata, RS, Brazil","coords":{"lat":"-28.784","lng":"-51.611"}},{"city":"Maceió, AL, Brazil","coords":{"lat":"-9.667","lng":"-35.735"}},{"city":"Pedro Juan Caballero, Paraguay","coords":{"lat":"-22.559","lng":"-55.731"}},{"city":"Santa Rita do Sapucai, MG, Brazil","coords":{"lat":"-22.24","lng":"-45.71"}},{"city":"Itapevi, BA, Brazil","coords":{"lat":"-15.967","lng":"-39.534"}},{"city":"Villavicencio, Meta, Colombia","coords":{"lat":"4.132","lng":"-73.622"}},{"city":"Porto Alegre, RS, Brazil","coords":{"lat":"-30.034","lng":"-51.228"}},{"city":"Rubiataba , GO, Brazil","coords":{"lat":"-15.162","lng":"-49.805"}},{"city":"Arroio Grande, RS, Brazil","coords":{"lat":"-32.242","lng":"-53.072"}},{"city":"Cachoeira do Sul, Brazil","coords":{"lat":"-30.049","lng":"-52.889"}},{"city":"Porto Ferreira, SP, Brazil","coords":{"lat":"-21.867","lng":"-47.482"}},{"city":"Suipacha, Argentina","coords":{"lat":"-34.776","lng":"-59.672"}},{"city":"Chulumani, Bolivia","coords":{"lat":"-16.381","lng":"-67.537"}},{"city":"Corumba, MS, Brazil","coords":{"lat":"-19.009","lng":"-57.653"}},{"city":"Rio de Janeiro, RJ, Brazil","coords":{"lat":"-22.912","lng":"-43.175"}},{"city":"Campinas, SP, Brazil","coords":{"lat":"-22.973","lng":"-47.121"}},{"city":"Ponta Grossa, PR, Brazil","coords":{"lat":"-25.095","lng":"-50.163"}},{"city":"Garupa, Argentina","coords":{"lat":"-27.48","lng":"-55.829"}},{"city":"Ponte Nova, MG, Brazil","coords":{"lat":"-20.41","lng":"-42.896"}},{"city":"Colonia Elisa, Argentina","coords":{"lat":"-26.925","lng":"-59.713"}},{"city":"Colider, MT, Brazil","coords":{"lat":"-10.813","lng":"-55.46"}},{"city":"Sao Manuel, SP, Brazil","coords":{"lat":"-22.733","lng":"-48.573"}},{"city":"Salto, SP, Brazil","coords":{"lat":"-23.196","lng":"-47.298"}},{"city":"Cachoeiro de Itapemirim, ES, Brazil","coords":{"lat":"-20.849","lng":"-41.113"}},{"city":"Lencois Paulista, SP, Brazil","coords":{"lat":"-22.607","lng":"-48.8"}},{"city":"Suipacha, Argentina","coords":{"lat":"-34.776","lng":"-59.672"}},{"city":"Nova Cantu, PR, Brazil","coords":{"lat":"-24.673","lng":"-52.567"}},{"city":"Cascavel, Brazil","coords":{"lat":"-24.964","lng":"-53.454"}},{"city":"Villa Mercedes, Argentina","coords":{"lat":"-33.663","lng":"-65.459"}},{"city":"Esquel, Argentina","coords":{"lat":"-42.911","lng":"-71.319"}},{"city":"Comodoro, MT, Brazil","coords":{"lat":"-13.663","lng":"-59.784"}},{"city":"Taquaritinga do Norte, PE , Brazil","coords":{"lat":"-7.902","lng":"-36.043"}},{"city":"Senador Pompeu, CE, Brazil","coords":{"lat":"-5.583","lng":"-39.371"}},{"city":"Apodi , RN, Brazil","coords":{"lat":"-5.663","lng":"-37.798"}},{"city":"Corumba, MS, Brazil","coords":{"lat":"-19.009","lng":"-57.653"}},{"city":"Uruguay, Uruguay","coords":{"lat":"-32.483","lng":"-53.517"}},{"city":"Campo Formoso, BA, Brazil","coords":{"lat":"-10.511","lng":"-40.322"}},{"city":"Sao Joao Do Ivai, PR, Brazil","coords":{"lat":"-23.992","lng":"-51.825"}},{"city":"Candiota, RS, Brazil","coords":{"lat":"-31.563","lng":"-53.676"}},{"city":"Tandil, Argentina","coords":{"lat":"-37.326","lng":"-59.108"}},{"city":"Morro Agudo, SP, Brazil","coords":{"lat":"-20.728","lng":"-48.056"}},{"city":"Villa Elisa, Argentina","coords":{"lat":"-32.16","lng":"-58.407"}},{"city":"Lavras da Mangabeira, CE, Brazil","coords":{"lat":"-6.752","lng":"-38.963"}},{"city":"Jacarezinho, PR, Brazil","coords":{"lat":"-23.162","lng":"-49.97"}},{"city":"Areia Branca, RN, Brazil","coords":{"lat":"-4.955","lng":"-37.13"}},{"city":"VILLA DOLORES, Argentina","coords":{"lat":"-31.947","lng":"-65.188"}},{"city":"Itapira, SP, Brazil","coords":{"lat":"-22.435","lng":"-46.827"}},{"city":"Inriville , Argentina","coords":{"lat":"-32.945","lng":"-62.231"}},{"city":"San Felipe, Yaracuy, Venezuela","coords":{"lat":"10.341","lng":"-68.73"}},{"city":"Paranavai, PR, Brazil","coords":{"lat":"-23.08","lng":"-52.464"}},{"city":"Uberaba, MG, Brazil","coords":{"lat":"-19.777","lng":"-47.94"}},{"city":"Santiago, RS, Brazil","coords":{"lat":"-29.17","lng":"-54.86"}},{"city":"Abreu e Lima, PE, Brazil","coords":{"lat":"-7.91","lng":"-34.904"}},{"city":"Santa Rosa, La Pampa, Argentina","coords":{"lat":"-36.62","lng":"-64.293"}},{"city":"Malacacheta, MG, Brazil","coords":{"lat":"-17.846","lng":"-42.077"}},{"city":"Las Lomitas, Argentina","coords":{"lat":"-24.708","lng":"-60.595"}},{"city":"Sao Jose Do Ouro, RS, Brazil","coords":{"lat":"-27.772","lng":"-51.598"}},{"city":"Corrientes, Argentina","coords":{"lat":"-27.506","lng":"-58.822"}},{"city":"Santa Elena, Ecuador","coords":{"lat":"-2.135","lng":"-80.577"}},{"city":"Campinas, SP, Brazil","coords":{"lat":"-22.973","lng":"-47.121"}},{"city":"Santa Catarina, Brazil","coords":{"lat":"-27.245","lng":"-50.492"}},{"city":"Bezerros, PE, Brazil","coords":{"lat":"-8.236","lng":"-35.745"}},{"city":"CORO, FALCON, Venezuela","coords":{"lat":"11.424","lng":"-69.668"}},{"city":"Rio Branco, AC, Brazil","coords":{"lat":"-9.974","lng":"-67.808"}},{"city":"Jequitinhonha, MG, Brazil","coords":{"lat":"-16.438","lng":"-41.012"}},{"city":"Ribeirão Preto, SP, Brazil","coords":{"lat":"-21.177","lng":"-47.808"}},{"city":"Xaxim, SC, Brazil","coords":{"lat":"-26.961","lng":"-52.537"}},{"city":"Girardot, Colombia","coords":{"lat":"4.297","lng":"-74.806"}},{"city":"Aracaju, SE, Brazil","coords":{"lat":"-10.909","lng":"-37.074"}},{"city":"Joinville, SC, Brazil","coords":{"lat":"-26.305","lng":"-48.846"}},{"city":"Nioaque, MS, Brazil","coords":{"lat":"-21.159","lng":"-55.826"}},{"city":"San Cristobal, Venezuela","coords":{"lat":"7.764","lng":"-72.228"}},{"city":"Candelaria, Argentina","coords":{"lat":"-26.127","lng":"-65.052"}},{"city":"Curitiba, PR, Brazil","coords":{"lat":"-25.44","lng":"-49.277"}},{"city":"Umuarama, PR, Brazil","coords":{"lat":"-23.75","lng":"-53.28"}},{"city":"Ibitita, BA, Brazil","coords":{"lat":"-11.495","lng":"-41.951"}},{"city":"Passos, MG, Brazil","coords":{"lat":"-20.721","lng":"-46.61"}},{"city":"Huaral, Peru","coords":{"lat":"-11.446","lng":"-77.258"}},{"city":"Tres Pontas, Brazil","coords":{"lat":"-21.364","lng":"-45.494"}},{"city":"Renaico, Chile","coords":{"lat":"-37.671","lng":"-72.585"}},{"city":"La Para, Argentina","coords":{"lat":"-30.892","lng":"-63.001"}},{"city":"Itapipoca, CE, Brazil","coords":{"lat":"-3.501","lng":"-39.579"}},{"city":"Ribas do Rio Pardo, MS, Brazil","coords":{"lat":"-20.452","lng":"-53.765"}},{"city":"Melo, Uruguay","coords":{"lat":"-32.362","lng":"-54.157"}},{"city":"Uirauna, PB, Brazil","coords":{"lat":"-6.52","lng":"-38.415"}},{"city":"Maranguape, CE, Brazil","coords":{"lat":"-3.89","lng":"-38.682"}},{"city":"Esquel , Argentina","coords":{"lat":"-42.911","lng":"-71.319"}},{"city":"Salto, Uruguay","coords":{"lat":"-31.411","lng":"-57.973"}},{"city":"Fortaleza, CE, Brazil","coords":{"lat":"-3.718","lng":"-38.543"}},{"city":"Rio de Janeiro, RJ, Brazil","coords":{"lat":"-22.912","lng":"-43.175"}},{"city":"Salinopolis , PA, Brazil","coords":{"lat":"-0.652","lng":"-47.324"}},{"city":"São Gonçalo, Brazil","coords":{"lat":"-22.829","lng":"-43.016"}},{"city":"Bragado, Argentina","coords":{"lat":"-35.112","lng":"-60.5"}},{"city":"Divinopolis, MG, Brazil","coords":{"lat":"-20.143","lng":"-44.911"}},{"city":"Lascano, Uruguay","coords":{"lat":"-33.677","lng":"-54.213"}},{"city":"Guarulhos, SP, Brazil","coords":{"lat":"-23.489","lng":"-46.459"}},{"city":"Itaperuna, RJ, Brazil","coords":{"lat":"-21.193","lng":"-41.9"}},{"city":"Paysandu, Uruguay","coords":{"lat":"-32.294","lng":"-58.089"}},{"city":"Rio de Janeiro, RJ, Brazil","coords":{"lat":"-22.912","lng":"-43.175"}},{"city":"Bebedouro, Brazil","coords":{"lat":"-20.949","lng":"-48.483"}},{"city":"Bahía Blanca, Argentina","coords":{"lat":"-38.706","lng":"-62.218"}},{"city":"Avare, SC, Brazil","coords":{"lat":"-27.245","lng":"-50.492"}},{"city":"Presidente Prudente, SP, Brazil","coords":{"lat":"-22.133","lng":"-51.387"}},{"city":"Cana Verde, MG, Brazil","coords":{"lat":"-21.021","lng":"-45.18"}},{"city":"Ribeirão Preto, SP, Brazil","coords":{"lat":"-21.177","lng":"-47.808"}},{"city":"Pergamino, Argentina","coords":{"lat":"-33.896","lng":"-60.567"}},{"city":"Sao Luis de Montes Belos, GO, Brazil","coords":{"lat":"-16.524","lng":"-50.373"}},{"city":"Ejido, Venezuela","coords":{"lat":"8.544","lng":"-71.241"}},{"city":"Atibaia, SP, Brazil","coords":{"lat":"-23.11","lng":"-46.546"}},{"city":"General Conesa, Argentina","coords":{"lat":"-36.52","lng":"-57.325"}},{"city":"Londrina, PR, Brazil","coords":{"lat":"-23.307","lng":"-51.153"}},{"city":"San Fernando de Apure, Venezuela","coords":{"lat":"7.892","lng":"-67.472"}},{"city":"Goianesia, Brazil","coords":{"lat":"-15.327","lng":"-49.117"}},{"city":"Curicó, Chile","coords":{"lat":"-34.986","lng":"-71.242"}},{"city":"Piracicaba, SP, Brazil","coords":{"lat":"-22.725","lng":"-47.648"}},{"city":"Araraquara, SP, Brazil","coords":{"lat":"-21.805","lng":"-48.196"}},{"city":"Coroico, Bolivia","coords":{"lat":"-16.19","lng":"-67.727"}},{"city":"Teresina, PI, Brazil","coords":{"lat":"-5.089","lng":"-42.802"}},{"city":"Rio de Janeiro, RJ, Brazil","coords":{"lat":"-22.912","lng":"-43.175"}},{"city":"Terrenos, MS, Brazil","coords":{"lat":"-20.443","lng":"-54.862"}},{"city":"General Pico, Argentina","coords":{"lat":"-35.66","lng":"-63.76"}},{"city":"Salto, Uruguay","coords":{"lat":"-31.411","lng":"-57.973"}},{"city":"Puyo, Ecuador","coords":{"lat":"-1.471","lng":"-77.997"}},{"city":"Campinas, SP, Brazil","coords":{"lat":"-22.973","lng":"-47.121"}},{"city":"Pereiras, SP, Brazil","coords":{"lat":"-23.073","lng":"-47.976"}},{"city":"São Luís, MA, Brazil","coords":{"lat":"-2.588","lng":"-44.198"}},{"city":"Yungay, Chile","coords":{"lat":"-37.12","lng":"-72.015"}},{"city":"Lima, Peru","coords":{"lat":"-12.056","lng":"-77.027"}},{"city":"Cordeiro, RJ, Brazil","coords":{"lat":"-22.015","lng":"-42.369"}},{"city":"Pentecoste, CE, Brazil","coords":{"lat":"-3.79","lng":"-39.271"}},{"city":"Yacimiento Rio Turbio, Argentina","coords":{"lat":"-51.537","lng":"-72.335"}},{"city":"Recife, PE, Brazil","coords":{"lat":"-8.063","lng":"-34.873"}},{"city":"Cuiaba , MT, Brazil","coords":{"lat":"-15.599","lng":"-56.095"}},{"city":"Maraba, PA, Brazil","coords":{"lat":"-5.37","lng":"-49.117"}},{"city":"Jataizinho , PR, Brazil","coords":{"lat":"-23.258","lng":"-50.976"}},{"city":"Quixabeira, BA, Brazil","coords":{"lat":"-11.406","lng":"-40.122"}},{"city":"Campina Grande, PB, Brazil","coords":{"lat":"-7.224","lng":"-35.891"}},{"city":"São Paulo, SP, Brazil","coords":{"lat":"-23.563","lng":"-46.655"}},{"city":"Coro, Venezuela","coords":{"lat":"11.424","lng":"-69.668"}},{"city":"Recife, PE, Brazil","coords":{"lat":"-8.063","lng":"-34.873"}},{"city":"Salto do Jacui, RS, Brazil","coords":{"lat":"-29.089","lng":"-53.211"}},{"city":"Curitiba, PR, Brazil","coords":{"lat":"-25.44","lng":"-49.277"}},{"city":"Toledo, PR, Brazil","coords":{"lat":"-24.719","lng":"-53.738"}},{"city":"Villarrica, Paraguay","coords":{"lat":"-25.782","lng":"-56.447"}},{"city":"Paramaribo, Suriname","coords":{"lat":"5.82","lng":"-55.165"}},{"city":"Foz do Iguaçu, PR, Brazil","coords":{"lat":"-25.527","lng":"-54.543"}},{"city":"Belo Horizonte, MG, Brazil","coords":{"lat":"-19.969","lng":"-43.946"}},{"city":"Nueve de Julio, Argentina","coords":{"lat":"-35.444","lng":"-60.876"}},{"city":"Neiva, Colombia","coords":{"lat":"2.928","lng":"-75.279"}},{"city":"Stanley, Falkland Islands","coords":{"lat":"-51.704","lng":"-57.86"}},{"city":"Agua Branca, PI, Brazil","coords":{"lat":"-5.893","lng":"-42.637"}},{"city":"Piedade do Rio Grande, MG, Brazil","coords":{"lat":"-21.467","lng":"-44.194"}},{"city":"Jaguaribara, CE, Brazil","coords":{"lat":"-5.663","lng":"-38.61"}},{"city":"Maringá, PR, Brazil","coords":{"lat":"-23.426","lng":"-51.937"}},{"city":"Aracuai, MG, Brazil","coords":{"lat":"-16.848","lng":"-42.07"}},{"city":"Santa Vitoria, MG, Brazil","coords":{"lat":"-18.848","lng":"-50.13"}},{"city":"Itu, SP, Brazil","coords":{"lat":"-23.285","lng":"-47.285"}},{"city":"Palmeiras de Goias, GO, Brazil","coords":{"lat":"-16.805","lng":"-49.924"}},{"city":"Villarrica, Paraguay","coords":{"lat":"-25.782","lng":"-56.447"}},{"city":"Vera Cruz, BA, Brazil","coords":{"lat":"-12.962","lng":"-38.608"}},{"city":"Queimados, RJ, Brazil","coords":{"lat":"-22.714","lng":"-43.577"}},{"city":"Curvelo, MG, Brazil","coords":{"lat":"-18.768","lng":"-44.436"}},{"city":"Pinhalzinho, SC, Brazil","coords":{"lat":"-26.846","lng":"-52.988"}},{"city":"Posadas, Argentina","coords":{"lat":"-27.377","lng":"-55.901"}},{"city":"Maracaju, MS, Brazil","coords":{"lat":"-21.627","lng":"-55.16"}},{"city":"Iguatu, CE, Brazil","coords":{"lat":"-6.349","lng":"-39.307"}},{"city":"Itabaiana, SE, Brazil","coords":{"lat":"-10.686","lng":"-37.425"}},{"city":"Itapeva, Brazil","coords":{"lat":"-23.982","lng":"-48.89"}},{"city":"Santo Augusto, RS, Brazil","coords":{"lat":"-27.847","lng":"-53.776"}},{"city":"Maceio, AL, Brazil","coords":{"lat":"-9.667","lng":"-35.735"}},{"city":"Santa Maria, RS, Brazil","coords":{"lat":"-29.691","lng":"-53.801"}},{"city":"Ibarra, Ecuador","coords":{"lat":"0.365","lng":"-78.106"}},{"city":"Toledo, PR, Brazil","coords":{"lat":"-24.719","lng":"-53.738"}},{"city":"Joaquin V. Gonzalez, Argentina","coords":{"lat":"-25.164","lng":"-64.302"}},{"city":"Necochea, Argentina","coords":{"lat":"-38.558","lng":"-58.758"}},{"city":"LA RIOJA, Argentina","coords":{"lat":"-29.424","lng":"-66.837"}},{"city":"Fernandez, Argentina","coords":{"lat":"-27.921","lng":"-63.891"}},{"city":"Balneario Pinhal, RS, Brazil","coords":{"lat":"-30.248","lng":"-50.235"}},{"city":"Campo Grande, MS, Brazil","coords":{"lat":"-20.456","lng":"-54.615"}},{"city":"Guaraniacu, PR, Brazil","coords":{"lat":"-25.102","lng":"-52.868"}},{"city":"Areial, PB, Brazil","coords":{"lat":"-7.043","lng":"-35.92"}},{"city":"Itapeva, SP, Brazil","coords":{"lat":"-23.982","lng":"-48.89"}},{"city":"Artigas, Uruguay","coords":{"lat":"-30.409","lng":"-56.476"}},{"city":"Jatai, GO, Brazil","coords":{"lat":"-17.88","lng":"-51.725"}},{"city":"São Paulo, SP, Brazil","coords":{"lat":"-23.563","lng":"-46.655"}},{"city":"Teixeira de Freitas, BA, Brazil","coords":{"lat":"-17.542","lng":"-39.716"}},{"city":"Aparecida, SP, Brazil","coords":{"lat":"-22.847","lng":"-45.243"}},{"city":"Lins, SP, Brazil","coords":{"lat":"-21.666","lng":"-49.752"}},{"city":"Miranda, Venezuela","coords":{"lat":"10.237","lng":"-66.379"}},{"city":"Porto Alegre, RS, Brazil","coords":{"lat":"-30.034","lng":"-51.228"}},{"city":"Ribeirão Preto, SP, Brazil","coords":{"lat":"-21.177","lng":"-47.808"}},{"city":"Tres Coracoes, MG, Brazil","coords":{"lat":"-21.693","lng":"-45.255"}},{"city":"Bajo, Bolivia","coords":{"lat":"-16.083","lng":"-68.05"}},{"city":"São Gonçalo, RJ, Brazil","coords":{"lat":"-22.829","lng":"-43.016"}},{"city":"São Paulo, SP, Brazil","coords":{"lat":"-23.563","lng":"-46.655"}},{"city":"Coreaú, CE, Brazil","coords":{"lat":"-3.551","lng":"-40.653"}},{"city":"Serrinha, BA, Brazil","coords":{"lat":"-11.67","lng":"-39.02"}},{"city":"Puerto Aguirre, Chile","coords":{"lat":"-45.084","lng":"-73.336"}},{"city":"São Lourenço, MG, Brazil","coords":{"lat":"-22.114","lng":"-45.057"}},{"city":"Trujillo, Venezuela","coords":{"lat":"9.347","lng":"-70.39"}},{"city":"Linhares, ES, Brazil","coords":{"lat":"-19.388","lng":"-40.052"}},{"city":"Natal, RN, Brazil","coords":{"lat":"-5.795","lng":"-35.212"}},{"city":"Vitoria, ES, Brazil","coords":{"lat":"-20.317","lng":"-40.293"}},{"city":"Linhares, ES, Brazil","coords":{"lat":"-19.388","lng":"-40.052"}},{"city":"Sauce, Argentina","coords":{"lat":"-30.094","lng":"-58.782"}},{"city":"Rio de Janeiro, RJ, Brazil","coords":{"lat":"-22.912","lng":"-43.175"}},{"city":"Fortaleza , CE, Brazil","coords":{"lat":"-3.718","lng":"-38.543"}},{"city":"Braganca, PA, Brazil","coords":{"lat":"-1.068","lng":"-46.769"}},{"city":"Crato, CE, Brazil","coords":{"lat":"-7.231","lng":"-39.406"}},{"city":"Eldorado, MS, Brazil","coords":{"lat":"-23.78","lng":"-54.283"}},{"city":"Carlos Gomes, RS, Brazil","coords":{"lat":"-27.717","lng":"-51.912"}},{"city":"Porto Velho, RO, Brazil","coords":{"lat":"-8.762","lng":"-63.902"}},{"city":"Serra, ES, Brazil","coords":{"lat":"-20.186","lng":"-40.241"}},{"city":"Patos de Minas, MG, Brazil","coords":{"lat":"-18.579","lng":"-46.518"}},{"city":"Rivera, Uruguay","coords":{"lat":"-30.909","lng":"-55.538"}},{"city":"Arapiraca, AL, Brazil","coords":{"lat":"-9.752","lng":"-36.66"}},{"city":"Villa Montes, Bolivia","coords":{"lat":"-21.259","lng":"-63.449"}},{"city":"Campo Bom, RS, Brazil","coords":{"lat":"-29.588","lng":"-51.088"}},{"city":"Marica, RJ, Brazil","coords":{"lat":"-22.938","lng":"-42.876"}},{"city":"Paracatu, Brazil","coords":{"lat":"-17.218","lng":"-46.876"}},{"city":"Barbacena, MG, Brazil","coords":{"lat":"-21.214","lng":"-43.768"}},{"city":"Cayenne, French Guiana","coords":{"lat":"4.923","lng":"-52.327"}},{"city":"Vera, Argentina","coords":{"lat":"-29.471","lng":"-60.223"}},{"city":"Maringá, PR, Brazil","coords":{"lat":"-23.426","lng":"-51.937"}},{"city":"Curitibanos, SC, Brazil","coords":{"lat":"-27.283","lng":"-50.582"}},{"city":"Toconao, Chile","coords":{"lat":"-23.191","lng":"-68.007"}},{"city":"Camocim de Sao Felix, PE, Brazil","coords":{"lat":"-8.36","lng":"-35.766"}},{"city":"Medianeira, PR, Brazil","coords":{"lat":"-25.295","lng":"-54.093"}},{"city":"Pitalito, Colombia","coords":{"lat":"1.85","lng":"-76.055"}},{"city":"Itapeva , SP, Brazil","coords":{"lat":"-23.982","lng":"-48.89"}},{"city":"Neuquen, Argentina","coords":{"lat":"-38.951","lng":"-68.061"}},{"city":"Ribeirao, PE, Brazil","coords":{"lat":"-8.503","lng":"-35.375"}},{"city":"Volta Redonda, RJ, Brazil","coords":{"lat":"-22.505","lng":"-44.094"}},{"city":"Trenque Lauquen , Argentina","coords":{"lat":"-35.966","lng":"-62.722"}},{"city":"Ciudad Bolivar, Venezuela","coords":{"lat":"8.144","lng":"-63.551"}},{"city":"Lagoa Da Prata, MG, Brazil","coords":{"lat":"-20.025","lng":"-45.533"}},{"city":"Vacaria, RS, Brazil","coords":{"lat":"-28.519","lng":"-50.922"}},{"city":"Biblian, Ecuador","coords":{"lat":"-2.653","lng":"-78.92"}},{"city":"Salgueiro, PE, Brazil","coords":{"lat":"-8.074","lng":"-39.129"}},{"city":"Arcos, Brazil","coords":{"lat":"-20.287","lng":"-45.545"}},{"city":"Capivari de Baixo, SC, Brazil","coords":{"lat":"-28.445","lng":"-48.958"}},{"city":"Central, BA, Brazil","coords":{"lat":"-11.138","lng":"-42.11"}},{"city":"Sombrio, SC, Brazil","coords":{"lat":"-29.11","lng":"-49.63"}},{"city":"Valinhos, SP, Brazil","coords":{"lat":"-22.968","lng":"-47.002"}},{"city":"San Francisco, Cordoba, Argentina","coords":{"lat":"-31.416","lng":"-62.086"}},{"city":"São Mateus, ES, Brazil","coords":{"lat":"-18.722","lng":"-39.86"}},{"city":"Pasto, Colombia","coords":{"lat":"1.218","lng":"-77.278"}},{"city":"Alvares Florence, SP, Brazil","coords":{"lat":"-20.321","lng":"-49.908"}},{"city":"Rodeio Bonito, RS, Brazil","coords":{"lat":"-27.475","lng":"-53.171"}},{"city":"Porto Velho, RO, Brazil","coords":{"lat":"-8.762","lng":"-63.902"}},{"city":"Puerto Santa Cruz, Argentina","coords":{"lat":"-50.02","lng":"-68.523"}},{"city":"Paraibuna, SP, Brazil","coords":{"lat":"-23.387","lng":"-45.662"}},{"city":"Colatina, ES, Brazil","coords":{"lat":"-19.534","lng":"-40.629"}},{"city":"São José dos Campos, SP, Brazil","coords":{"lat":"-23.259","lng":"-45.883"}},{"city":"Limoeiro , PE, Brazil","coords":{"lat":"-7.865","lng":"-35.44"}},{"city":"Timbo , SC, Brazil","coords":{"lat":"-26.813","lng":"-49.252"}},{"city":"Rio Branco, AC, Brazil","coords":{"lat":"-9.974","lng":"-67.808"}},{"city":"Paraiba do Sul, RJ, Brazil","coords":{"lat":"-22.16","lng":"-43.289"}},{"city":"Concepcion, Peru","coords":{"lat":"-13.52","lng":"-73.92"}},{"city":"Ipiales, Colombia","coords":{"lat":"0.842","lng":"-77.683"}},{"city":"Taubate, SP, Brazil","coords":{"lat":"-23.038","lng":"-45.569"}},{"city":"Araruama, Brazil","coords":{"lat":"-22.856","lng":"-42.348"}},{"city":"Neuquén, Argentina","coords":{"lat":"-38.951","lng":"-68.061"}},{"city":"Pedra Azul, Brazil","coords":{"lat":"-15.998","lng":"-41.281"}},{"city":"Capilla Del Monte, Argentina","coords":{"lat":"-30.857","lng":"-64.53"}},{"city":"Trevelin, Argentina","coords":{"lat":"-43.076","lng":"-71.462"}},{"city":"Vitoria, ES, Brazil","coords":{"lat":"-20.317","lng":"-40.293"}},{"city":"Itaporanga D'ajuda, Brazil","coords":{"lat":"-11.001","lng":"-37.309"}},{"city":"Nova Iguacu, RJ, Brazil","coords":{"lat":"-22.76","lng":"-43.451"}},{"city":"Belém, PA, Brazil","coords":{"lat":"-1.448","lng":"-48.473"}},{"city":"Sao Jeronimo, RS, Brazil","coords":{"lat":"-29.962","lng":"-51.725"}},{"city":"Paulo, SP, Brazil","coords":{"lat":"-23.563","lng":"-46.655"}},{"city":"San Juan de los Morros, Venezuela","coords":{"lat":"9.904","lng":"-67.356"}},{"city":"Neuquen, Cutral Co, Argentina","coords":{"lat":"-38.93","lng":"-69.215"}},{"city":"San Agustin, Colombia","coords":{"lat":"1.88","lng":"-76.272"}},{"city":"Mongagua, SP, Brazil","coords":{"lat":"-24.116","lng":"-46.666"}},{"city":"Maringá, PR, Brazil","coords":{"lat":"-23.426","lng":"-51.937"}},{"city":"Galia, SP, Brazil","coords":{"lat":"-22.293","lng":"-49.551"}},{"city":"Rio de Janeiro, RJ, Brazil","coords":{"lat":"-22.912","lng":"-43.175"}},{"city":"Juazeiro, BA, Brazil","coords":{"lat":"-9.443","lng":"-40.516"}},{"city":"Jandira, SP, Brazil","coords":{"lat":"-23.537","lng":"-46.91"}},{"city":"Aparecida de Goiania, GO, Brazil","coords":{"lat":"-16.763","lng":"-49.273"}},{"city":"Fortaleza, CE, Brazil","coords":{"lat":"-3.718","lng":"-38.543"}},{"city":"Ariranha, SP, Brazil","coords":{"lat":"-21.187","lng":"-48.784"}},{"city":"Tucano, BA, Brazil","coords":{"lat":"-10.965","lng":"-38.787"}},{"city":"Araxa, MG, Brazil","coords":{"lat":"-19.594","lng":"-46.941"}},{"city":"Braganca, Brazil","coords":{"lat":"-22.951","lng":"-46.541"}},{"city":"Capiata, Paraguay","coords":{"lat":"-25.371","lng":"-57.459"}},{"city":"Barreiras, BA, Brazil","coords":{"lat":"-12.148","lng":"-44.992"}},{"city":"Atacames, Ecuador","coords":{"lat":"0.87","lng":"-79.849"}},{"city":"Porlamar, Venezuela","coords":{"lat":"10.957","lng":"-63.852"}},{"city":"Campina Grande, PB, Brazil","coords":{"lat":"-7.224","lng":"-35.891"}},{"city":"Oruro, Bolivia","coords":{"lat":"-17.948","lng":"-67.104"}},{"city":"Caico, RN, Brazil","coords":{"lat":"-6.46","lng":"-37.098"}},{"city":"San Juan, Argentina","coords":{"lat":"-31.555","lng":"-68.522"}},{"city":"Iaciara , GO, Brazil","coords":{"lat":"-14.161","lng":"-46.657"}},{"city":"Nova Iguacu, RJ, Brazil","coords":{"lat":"-22.76","lng":"-43.451"}},{"city":"Erechim , RS, Brazil","coords":{"lat":"-27.637","lng":"-52.308"}},{"city":"Cacoal, RO, Brazil","coords":{"lat":"-11.431","lng":"-61.448"}},{"city":"Caazapa, Paraguay","coords":{"lat":"-26.198","lng":"-56.373"}},{"city":"Pedro Juan Caballero, Paraguay","coords":{"lat":"-22.559","lng":"-55.731"}},{"city":"Rio De Janeiro, RJ, Brazil","coords":{"lat":"-22.912","lng":"-43.175"}},{"city":"Capim Grosso, BA, Brazil","coords":{"lat":"-11.382","lng":"-40.011"}},{"city":"San Juan de Los Morros, Venezuela","coords":{"lat":"9.904","lng":"-67.356"}},{"city":"Puerto Gaitan, Colombia","coords":{"lat":"4.241","lng":"-71.687"}},{"city":"Tramandai, RS, Brazil","coords":{"lat":"-29.991","lng":"-50.133"}},{"city":"Indaial, SC, Brazil","coords":{"lat":"-26.89","lng":"-49.244"}},{"city":"Sao Gotardo, MG, Brazil","coords":{"lat":"-19.31","lng":"-46.048"}},{"city":"Nova Londrina, PR, Brazil","coords":{"lat":"-22.766","lng":"-52.986"}},{"city":"Itapolis, SP, Brazil","coords":{"lat":"-21.592","lng":"-48.816"}},{"city":"Sobradinho, RS, Brazil","coords":{"lat":"-29.422","lng":"-53.127"}},{"city":"Garanhuns, PE, Brazil","coords":{"lat":"-8.885","lng":"-36.467"}},{"city":"Santo Antonio Das Missoes, RS, Brazil","coords":{"lat":"-28.511","lng":"-55.229"}},{"city":"Marapanim, PA, Brazil","coords":{"lat":"-0.71","lng":"-47.696"}},{"city":"Ribeirao Pires, SP, Brazil","coords":{"lat":"-23.714","lng":"-46.414"}},{"city":"Sananduva, RS, Brazil","coords":{"lat":"-27.949","lng":"-51.806"}},{"city":"São Paulo, SP, Brazil","coords":{"lat":"-23.563","lng":"-46.655"}},{"city":"Dabeiba, Colombia","coords":{"lat":"7.041","lng":"-76.346"}},{"city":"Salvador, BA, Brazil","coords":{"lat":"-12.971","lng":"-38.513"}},{"city":"Florianópolis, SC, Brazil","coords":{"lat":"-27.598","lng":"-48.548"}},{"city":"Macia, Argentina","coords":{"lat":"-32.174","lng":"-59.399"}},{"city":"Sao Jose do Rio Preto, SP, Brazil","coords":{"lat":"-20.844","lng":"-49.395"}},{"city":"Rio de Janeiro, RJ, Brazil","coords":{"lat":"-22.912","lng":"-43.175"}},{"city":"Surubim, PE, Brazil","coords":{"lat":"-7.839","lng":"-35.758"}},{"city":"Juazeiro do Norte, CE, Brazil","coords":{"lat":"-7.236","lng":"-39.322"}},{"city":"Mérida, Venezuela","coords":{"lat":"8.598","lng":"-71.145"}},{"city":"Campos Altos, MG, Brazil","coords":{"lat":"-19.698","lng":"-46.17"}},{"city":"Rio Grande do Sul, Brazil","coords":{"lat":"-29.786","lng":"-53.246"}},{"city":"Formosa, Argentina","coords":{"lat":"-24.892","lng":"-59.937"}},{"city":"Ubata, BA, Brazil","coords":{"lat":"-14.209","lng":"-39.526"}},{"city":"São Sebastião, SP, Brazil","coords":{"lat":"-23.838","lng":"-45.339"}},{"city":"Praia Grande, SP, Brazil","coords":{"lat":"-24","lng":"-46.414"}},{"city":"Viçosa, MG, Brazil","coords":{"lat":"-20.754","lng":"-42.884"}},{"city":"Santa Rita do Sapucai, MG, Brazil","coords":{"lat":"-22.24","lng":"-45.71"}},{"city":"Reconquista, Santa Fe, Argentina","coords":{"lat":"-29.14","lng":"-59.656"}},{"city":"Minas Gerais, Brazil","coords":{"lat":"-18.456","lng":"-44.673"}},{"city":"Asuncion, Paraguay","coords":{"lat":"-25.298","lng":"-57.623"}},{"city":"São Paulo, SP, Brazil","coords":{"lat":"-23.563","lng":"-46.655"}},{"city":"Santo Domingo, Ecuador","coords":{"lat":"-0.275","lng":"-79.164"}},{"city":"Bauru, SP, Brazil","coords":{"lat":"-22.316","lng":"-49.062"}},{"city":"Ijui, RS, Brazil","coords":{"lat":"-28.389","lng":"-53.916"}},{"city":"General Cabrera, Argentina","coords":{"lat":"-32.811","lng":"-63.87"}},{"city":"Belo Horizonte, MG, Brazil","coords":{"lat":"-19.969","lng":"-43.946"}},{"city":"Caninde, CE, Brazil","coords":{"lat":"-4.355","lng":"-39.311"}},{"city":"Lagarto, SE, Brazil","coords":{"lat":"-10.915","lng":"-37.664"}},{"city":"Suipacha, Argentina","coords":{"lat":"-34.776","lng":"-59.672"}},{"city":"Necochea, Argentina","coords":{"lat":"-38.558","lng":"-58.758"}},{"city":"Chincolco, Chile","coords":{"lat":"-32.221","lng":"-70.84"}},{"city":"Porto Alegre, RS, Brazil","coords":{"lat":"-30.034","lng":"-51.228"}},{"city":"Criciuma, SC, Brazil","coords":{"lat":"-28.678","lng":"-49.372"}},{"city":"Volta Redonda, RJ, Brazil","coords":{"lat":"-22.505","lng":"-44.094"}},{"city":"Virginopolis, MG, Brazil","coords":{"lat":"-18.822","lng":"-42.705"}},{"city":"São Paulo, SP, Brazil","coords":{"lat":"-23.563","lng":"-46.655"}},{"city":"Joinville, SC, Brazil","coords":{"lat":"-26.305","lng":"-48.846"}},{"city":"Araucaria, PR, Brazil","coords":{"lat":"-25.578","lng":"-49.398"}},{"city":"Pinhal, SP, Brazil","coords":{"lat":"-22.18","lng":"-46.742"}},{"city":"Boquim, SE, Brazil","coords":{"lat":"-11.142","lng":"-37.623"}},{"city":"Canas, SP, Brazil","coords":{"lat":"-22.704","lng":"-45.054"}},{"city":"Ouro Preto Do Oeste, RO, Brazil","coords":{"lat":"-10.712","lng":"-62.255"}},{"city":"Porlamar, Venezuela","coords":{"lat":"10.957","lng":"-63.852"}},{"city":"Florianópolis, SC, Brazil","coords":{"lat":"-27.598","lng":"-48.548"}},{"city":"Asuncion, Paraguay","coords":{"lat":"-25.298","lng":"-57.623"}},{"city":"Villa Union, Argentina","coords":{"lat":"-29.316","lng":"-68.226"}},{"city":"Mogi Guacu, SP, Brazil","coords":{"lat":"-22.363","lng":"-46.945"}},{"city":"Paso de los Toros, Uruguay","coords":{"lat":"-32.807","lng":"-56.52"}},{"city":"Paute, Ecuador","coords":{"lat":"-2.781","lng":"-78.795"}},{"city":"Necochea, Argentina","coords":{"lat":"-38.558","lng":"-58.758"}},{"city":"Florianópolis, SC, Brazil","coords":{"lat":"-27.598","lng":"-48.548"}},{"city":"Villa Mercedes, Argentina","coords":{"lat":"-33.663","lng":"-65.459"}},{"city":"Pitanga, PR, Brazil","coords":{"lat":"-24.755","lng":"-51.764"}},{"city":"Palmas, TO, Brazil","coords":{"lat":"-10.23","lng":"-48.335"}},{"city":"Bauru, SP, Brazil","coords":{"lat":"-22.316","lng":"-49.062"}},{"city":"Posse, GO, Brazil","coords":{"lat":"-14.088","lng":"-46.366"}},{"city":"Orellana, Peru","coords":{"lat":"-6.915","lng":"-75.172"}},{"city":"Cristalina, GO, Brazil","coords":{"lat":"-16.768","lng":"-47.607"}},{"city":"Fortaleza, CE, Brazil","coords":{"lat":"-3.718","lng":"-38.543"}},{"city":"Iguatu, CE, Brazil","coords":{"lat":"-6.349","lng":"-39.307"}},{"city":"Ituverava, SP, Brazil","coords":{"lat":"-20.334","lng":"-47.797"}},{"city":"Pelotas, RS, Brazil","coords":{"lat":"-31.763","lng":"-52.341"}},{"city":"Curitiba, PR, Brazil","coords":{"lat":"-25.44","lng":"-49.277"}},{"city":"San Luis, Argentina","coords":{"lat":"-33.27","lng":"-66.345"}},{"city":"Curico, Chile","coords":{"lat":"-34.986","lng":"-71.242"}},{"city":"Avare, SP, Brazil","coords":{"lat":"-23.085","lng":"-48.916"}},{"city":"Natal, RN, Brazil","coords":{"lat":"-5.795","lng":"-35.212"}},{"city":"Rafaela, Argentina","coords":{"lat":"-31.253","lng":"-61.491"}},{"city":"Porto Alegre, RS, Brazil","coords":{"lat":"-30.034","lng":"-51.228"}},{"city":"Coronel Suarez, Argentina","coords":{"lat":"-37.46","lng":"-61.93"}},{"city":"Taquaritinga, SP, Brazil","coords":{"lat":"-21.412","lng":"-48.503"}},{"city":"Campos Dos Goytacazes, RJ, Brazil","coords":{"lat":"-21.755","lng":"-41.324"}},{"city":"Sao Jose Do Rio Preto, SP, Brazil","coords":{"lat":"-20.844","lng":"-49.395"}},{"city":"Lucas Gonzalez, Argentina","coords":{"lat":"-32.386","lng":"-59.53"}},{"city":"Azogues , Ecuador","coords":{"lat":"-2.704","lng":"-78.814"}},{"city":"Patos de Minas, MG, Brazil","coords":{"lat":"-18.579","lng":"-46.518"}},{"city":"Vitória, ES, Brazil","coords":{"lat":"-20.317","lng":"-40.293"}},{"city":"Piracicaba, SP, Brazil","coords":{"lat":"-22.725","lng":"-47.648"}},{"city":"Salinas, Ecuador","coords":{"lat":"-2.215","lng":"-80.951"}},{"city":"Goiania, GO, Brazil","coords":{"lat":"-16.679","lng":"-49.256"}},{"city":"Paramaribo, Suriname","coords":{"lat":"5.82","lng":"-55.165"}},{"city":"Senhor do Bonfim, BA, Brazil","coords":{"lat":"-10.457","lng":"-40.194"}},{"city":"São Paulo, SP, Brazil","coords":{"lat":"-23.563","lng":"-46.655"}},{"city":"Ciudad Bolívar, Venezuela","coords":{"lat":"8.144","lng":"-63.551"}},{"city":"Camaragibe, PE, Brazil","coords":{"lat":"-8","lng":"-34.993"}},{"city":"Sao Nicolau, RS, Brazil","coords":{"lat":"-28.184","lng":"-55.266"}},{"city":"Santa Cruz, Bolivia","coords":{"lat":"-17.779","lng":"-63.18"}},{"city":"Trinidad, Uruguay","coords":{"lat":"-33.544","lng":"-56.901"}},{"city":"El tigre, Venezuela","coords":{"lat":"8.894","lng":"-64.264"}},{"city":"Jaboatao dos Guararapes, PE, Brazil","coords":{"lat":"-8.18","lng":"-34.947"}},{"city":"Puerto Madryn, Argentina","coords":{"lat":"-42.771","lng":"-65.049"}},{"city":"Capao Do Leao, RS, Brazil","coords":{"lat":"-31.761","lng":"-52.437"}},{"city":"Brasília, Brazil","coords":{"lat":"-15.784","lng":"-47.881"}},{"city":"Aracariguama , SP, Brazil","coords":{"lat":"-23.439","lng":"-47.063"}},{"city":"Recife, PE, Brazil","coords":{"lat":"-8.063","lng":"-34.873"}},{"city":"Boituva, SP, Brazil","coords":{"lat":"-23.287","lng":"-47.677"}},{"city":"Ouro Preto, MG, Brazil","coords":{"lat":"-20.385","lng":"-43.516"}},{"city":"São Carlos, SP, Brazil","coords":{"lat":"-22.012","lng":"-47.901"}},{"city":"Miracatu, SP, Brazil","coords":{"lat":"-24.287","lng":"-47.459"}},{"city":"Rio Verde, MS, Brazil","coords":{"lat":"-18.92","lng":"-54.845"}},{"city":"Urena, Venezuela","coords":{"lat":"7.917","lng":"-72.455"}},{"city":"Rio Tercero, Cordoba, Argentina","coords":{"lat":"-32.17","lng":"-64.128"}},{"city":"Bella Union, Uruguay","coords":{"lat":"-30.262","lng":"-57.606"}},{"city":"Umuarama, PR, Brazil","coords":{"lat":"-23.75","lng":"-53.28"}},{"city":"Faxinal Do Soturno, RS, Brazil","coords":{"lat":"-29.617","lng":"-53.433"}},{"city":"Itabira , MG, Brazil","coords":{"lat":"-19.635","lng":"-43.238"}},{"city":"Iguaracu, PR, Brazil","coords":{"lat":"-23.195","lng":"-51.83"}},{"city":"Pedro Juan Caballero, Paraguay","coords":{"lat":"-22.559","lng":"-55.731"}},{"city":"Posse, GO, Brazil","coords":{"lat":"-14.088","lng":"-46.366"}},{"city":"Los Angeles, Chile","coords":{"lat":"-37.473","lng":"-72.354"}},{"city":"Tatuí, SP, Brazil","coords":{"lat":"-23.349","lng":"-47.835"}},{"city":"Barinas, Venezuela","coords":{"lat":"8.631","lng":"-70.205"}},{"city":"Manzanares, Caldas, Colombia","coords":{"lat":"5.194","lng":"-75.121"}},{"city":"Tarqui, Manabí, Ecuador","coords":{"lat":"-0.95","lng":"-80.733"}},{"city":"Mérida, Mérida, Venezuela","coords":{"lat":"8.598","lng":"-71.145"}},{"city":"Aracaju, SE, Brazil","coords":{"lat":"-10.909","lng":"-37.074"}},{"city":"Chanco, Chile","coords":{"lat":"-36.286","lng":"-72.711"}},{"city":"Villa Dolores, Argentina","coords":{"lat":"-31.947","lng":"-65.188"}},{"city":"Erechim, RS, Brazil","coords":{"lat":"-27.637","lng":"-52.308"}},{"city":"Tubarao, SC, Brazil","coords":{"lat":"-28.469","lng":"-49.041"}},{"city":"Guanare, Venezuela","coords":{"lat":"9.034","lng":"-69.74"}},{"city":"Tacuarembó, Uruguay","coords":{"lat":"-31.709","lng":"-55.983"}},{"city":"La Plata, Argentina","coords":{"lat":"-34.92","lng":"-57.919"}},{"city":"Teófilo Otoni, MG, Brazil","coords":{"lat":"-17.852","lng":"-41.511"}},{"city":"Campos dos Goytacazes, RJ, Brazil","coords":{"lat":"-21.755","lng":"-41.324"}},{"city":"Nilopolis, RJ, Brazil","coords":{"lat":"-22.802","lng":"-43.422"}},{"city":"Brasília, DF, Brazil","coords":{"lat":"-15.784","lng":"-47.881"}},{"city":"Jaú, SP, Brazil","coords":{"lat":"-22.282","lng":"-48.553"}},{"city":"Caceres, Brazil","coords":{"lat":"-16.074","lng":"-57.659"}},{"city":"Florida, Uruguay","coords":{"lat":"-34.094","lng":"-56.227"}},{"city":"Marechal Candido Rondon, PR, Brazil","coords":{"lat":"-24.557","lng":"-54.057"}},{"city":"San Felipe, Venezuela","coords":{"lat":"10.341","lng":"-68.73"}},{"city":"Canete, Chile","coords":{"lat":"-37.804","lng":"-73.392"}},{"city":"Piraju , SP, Brazil","coords":{"lat":"-23.195","lng":"-49.382"}},{"city":"Resende Costa, Brazil","coords":{"lat":"-20.917","lng":"-44.241"}},{"city":"Antonina, PR, Brazil","coords":{"lat":"-25.431","lng":"-48.711"}},{"city":"Picos, PI, Brazil","coords":{"lat":"-7.087","lng":"-41.47"}},{"city":"Salto, Uruguay","coords":{"lat":"-31.411","lng":"-57.973"}},{"city":"Rio Brilhante, MS, Brazil","coords":{"lat":"-21.799","lng":"-54.546"}},{"city":"Belem , PA, Brazil","coords":{"lat":"-1.448","lng":"-48.473"}},{"city":"Brasília, DF, Brazil","coords":{"lat":"-15.784","lng":"-47.881"}},{"city":"Paracuru, CE, Brazil","coords":{"lat":"-3.431","lng":"-39.036"}},{"city":"Votuporanga, SP, Brazil","coords":{"lat":"-20.411","lng":"-49.973"}},{"city":"Guarapuava, PR, Brazil","coords":{"lat":"-25.393","lng":"-51.456"}},{"city":"Joaquin V. Gonzalez, Argentina","coords":{"lat":"-25.164","lng":"-64.302"}},{"city":"Porto Nacional, TO, Brazil","coords":{"lat":"-10.708","lng":"-48.415"}},{"city":"Barreiras, BA, Brazil","coords":{"lat":"-12.148","lng":"-44.992"}},{"city":"Anta, Argentina","coords":{"lat":"-24.867","lng":"-63.838"}},{"city":"Maceió, AL, Brazil","coords":{"lat":"-9.667","lng":"-35.735"}},{"city":"Salto del Guaira, Paraguay","coords":{"lat":"-24.064","lng":"-54.308"}},{"city":"Manaus, AM, Brazil","coords":{"lat":"-3.123","lng":"-60.021"}},{"city":"Serafina Correa, RS, Brazil","coords":{"lat":"-28.711","lng":"-51.933"}},{"city":"Bombinhas, SC, Brazil","coords":{"lat":"-27.15","lng":"-48.508"}},{"city":"Pitalito, Colombia","coords":{"lat":"1.85","lng":"-76.055"}},{"city":"Lauro Muller, SC, Brazil","coords":{"lat":"-28.396","lng":"-49.396"}},{"city":"Triunfo, RS, Brazil","coords":{"lat":"-29.937","lng":"-51.714"}},{"city":"Punta del Este, Uruguay","coords":{"lat":"-34.935","lng":"-54.934"}},{"city":"São Paulo, SP, Brazil","coords":{"lat":"-23.563","lng":"-46.655"}},{"city":"Curitiba, PR, Brazil","coords":{"lat":"-25.44","lng":"-49.277"}},{"city":"Atalaia, AL, Brazil","coords":{"lat":"-9.508","lng":"-36.023"}},{"city":"Piracicaba, SP, Brazil","coords":{"lat":"-22.725","lng":"-47.648"}},{"city":"Arcoverde, PE, Brazil","coords":{"lat":"-8.42","lng":"-37.065"}},{"city":"Oruro, Bolivia","coords":{"lat":"-17.948","lng":"-67.104"}},{"city":"Montero, Bolivia","coords":{"lat":"-17.343","lng":"-63.244"}},{"city":"Guarabira, PB, Brazil","coords":{"lat":"-6.851","lng":"-35.485"}},{"city":"Manaus, AM, Brazil","coords":{"lat":"-3.123","lng":"-60.021"}},{"city":"Manaus, AM, Brazil","coords":{"lat":"-3.123","lng":"-60.021"}},{"city":"João Pessoa, PB, Brazil","coords":{"lat":"-7.115","lng":"-34.861"}},{"city":"Pires do Rio , GO, Brazil","coords":{"lat":"-17.304","lng":"-48.282"}},{"city":"Gravatá, PE , Brazil","coords":{"lat":"-8.212","lng":"-35.569"}},{"city":"Rio de Janeiro, RJ, Brazil","coords":{"lat":"-22.912","lng":"-43.175"}},{"city":"Cedro, CE, Brazil","coords":{"lat":"-6.601","lng":"-39.061"}},{"city":"Carmelo, Uruguay","coords":{"lat":"-33.997","lng":"-58.285"}},{"city":"Oruro, Bolivia","coords":{"lat":"-17.948","lng":"-67.104"}},{"city":"Lagoa Vermelha, RS, Brazil","coords":{"lat":"-28.206","lng":"-51.52"}},{"city":"Paraiso do Tocantins, TO, Brazil","coords":{"lat":"-10.172","lng":"-48.881"}},{"city":"Castelo Do Piaui , PI, Brazil","coords":{"lat":"-5.323","lng":"-41.553"}},{"city":"Rio Claro, SP, Brazil","coords":{"lat":"-22.404","lng":"-47.584"}},{"city":"Marechal Deodoro, AL, Brazil","coords":{"lat":"-9.774","lng":"-35.852"}},{"city":"Goiania, GO, Brazil","coords":{"lat":"-16.679","lng":"-49.256"}},{"city":"Buritizeiro, MG, Brazil","coords":{"lat":"-17.37","lng":"-44.928"}},{"city":"Areia, PB, Brazil","coords":{"lat":"-6.964","lng":"-35.698"}},{"city":"Varginha, MG, Brazil","coords":{"lat":"-21.557","lng":"-45.437"}},{"city":"Passo Fundo, RS, Brazil","coords":{"lat":"-28.267","lng":"-52.438"}},{"city":"Capivari de Baixo, SC, Brazil","coords":{"lat":"-28.445","lng":"-48.958"}},{"city":"Esmeraldas, Ecuador","coords":{"lat":"0.962","lng":"-79.655"}},{"city":"Yopal, Colombia","coords":{"lat":"5.336","lng":"-72.382"}},{"city":"São Paulo, SP, Brazil","coords":{"lat":"-23.563","lng":"-46.655"}},{"city":"Tatuí, SP, Brazil","coords":{"lat":"-23.349","lng":"-47.835"}},{"city":"Riobamba, Ecuador","coords":{"lat":"-1.664","lng":"-78.641"}},{"city":"Alenquer, PA, Brazil","coords":{"lat":"-1.941","lng":"-54.736"}},{"city":"Guapore, RS, Brazil","coords":{"lat":"-28.84","lng":"-51.893"}},{"city":"Belo Horizonte, MG, Brazil","coords":{"lat":"-19.969","lng":"-43.946"}},{"city":"Francisco Beltrao, PR, Brazil","coords":{"lat":"-26.073","lng":"-53.067"}},{"city":"Americana, SP, Brazil","coords":{"lat":"-22.742","lng":"-47.327"}},{"city":"Foz do Iguaçu, PR, Brazil","coords":{"lat":"-25.527","lng":"-54.543"}},{"city":"Lagoa da Prata, MG, Brazil","coords":{"lat":"-20.025","lng":"-45.533"}},{"city":"Pedrinopolis, Brazil","coords":{"lat":"-19.229","lng":"-47.464"}},{"city":"Sorocaba, SP, Brazil","coords":{"lat":"-23.508","lng":"-47.512"}},{"city":"Rio de Janeiro, RJ, Brazil","coords":{"lat":"-22.912","lng":"-43.175"}},{"city":"Samambaia, DF, Brazil","coords":{"lat":"-15.879","lng":"-48.104"}},{"city":"Fortaleza, CE, Brazil","coords":{"lat":"-3.718","lng":"-38.543"}},{"city":"Manaus, AM, Brazil","coords":{"lat":"-3.123","lng":"-60.021"}},{"city":"Araguacu, TO, Brazil","coords":{"lat":"-12.928","lng":"-49.824"}},{"city":"Itaperuna , MG, Brazil","coords":{"lat":"-18.456","lng":"-44.673"}},{"city":"Ayacucho, Argentina","coords":{"lat":"-37.159","lng":"-58.49"}},{"city":"Itaituba , PA, Brazil","coords":{"lat":"-4.269","lng":"-55.99"}},{"city":"Apodi, RN, Brazil","coords":{"lat":"-5.663","lng":"-37.798"}},{"city":"Presidente Prudente, SP, Brazil","coords":{"lat":"-22.133","lng":"-51.387"}},{"city":"Hipolito Yrigoyen, Argentina","coords":{"lat":"-36.254","lng":"-61.662"}},{"city":"Assis, Brazil","coords":{"lat":"-22.657","lng":"-50.412"}},{"city":"San Carlos, Cojedes, Venezuela","coords":{"lat":"9.657","lng":"-68.583"}},{"city":"Cerquilho, SP, Brazil","coords":{"lat":"-23.16","lng":"-47.73"}},{"city":"General Arenales, Argentina","coords":{"lat":"-34.309","lng":"-61.308"}},{"city":"Cristina, MG, Brazil","coords":{"lat":"-22.21","lng":"-45.264"}},{"city":"General Pico, Argentina","coords":{"lat":"-35.66","lng":"-63.76"}},{"city":"Cabo Frio, RJ, Brazil","coords":{"lat":"-22.843","lng":"-42.017"}},{"city":"Itauna, Brazil","coords":{"lat":"-20.073","lng":"-44.576"}},{"city":"Esperança, PB, Brazil","coords":{"lat":"-7.022","lng":"-35.859"}},{"city":"Bahia, BA, Brazil","coords":{"lat":"-12.474","lng":"-41.725"}},{"city":"Santiago del Estero, Argentina","coords":{"lat":"-27.805","lng":"-64.261"}},{"city":"Santo Cristo, RS, Brazil","coords":{"lat":"-27.827","lng":"-54.661"}},{"city":"Angol, Chile","coords":{"lat":"-37.799","lng":"-72.705"}},{"city":"Presidente Venceslau, SP, Brazil","coords":{"lat":"-21.878","lng":"-51.844"}},{"city":"Francisco Beltrao, PR, Brazil","coords":{"lat":"-26.073","lng":"-53.067"}},{"city":"Mérida, Venezuela","coords":{"lat":"8.598","lng":"-71.145"}},{"city":"Aracaju, SE, Brazil","coords":{"lat":"-10.909","lng":"-37.074"}},{"city":"Campina Grande, PB, Brazil","coords":{"lat":"-7.224","lng":"-35.891"}},{"city":"Prata, MG, Brazil","coords":{"lat":"-19.303","lng":"-48.922"}},{"city":"Ijui, RS, Brazil","coords":{"lat":"-28.389","lng":"-53.916"}},{"city":"Valera, Trujillo, Venezuela","coords":{"lat":"9.319","lng":"-70.602"}},{"city":"Belem, PA, Brazil","coords":{"lat":"-1.448","lng":"-48.473"}},{"city":"Taquarituba, SP, Brazil","coords":{"lat":"-23.527","lng":"-49.246"}},{"city":"Teresina , PI, Brazil","coords":{"lat":"-5.089","lng":"-42.802"}},{"city":"Porto Alegre, RS, Brazil","coords":{"lat":"-30.034","lng":"-51.228"}},{"city":"Colonia, Uruguay","coords":{"lat":"-34.337","lng":"-57.756"}},{"city":"Estrela, RS, Brazil","coords":{"lat":"-29.501","lng":"-51.964"}},{"city":"Carmo Do Cajuru, MG, Brazil","coords":{"lat":"-20.187","lng":"-44.773"}},{"city":"Campo Belo, MG, Brazil","coords":{"lat":"-20.894","lng":"-45.27"}},{"city":"Poco Branco, RN, Brazil","coords":{"lat":"-5.621","lng":"-35.66"}},{"city":"Santa Cruz De La Sierra, Bolivia","coords":{"lat":"-17.779","lng":"-63.18"}},{"city":"Belo Horizonte, MG, Brazil","coords":{"lat":"-19.969","lng":"-43.946"}},{"city":"Cuenca, Ecuador","coords":{"lat":"-2.893","lng":"-78.994"}},{"city":"Corrego Danta, MG, Brazil","coords":{"lat":"-19.826","lng":"-45.906"}},{"city":"Campo Belo, MG, Brazil","coords":{"lat":"-20.894","lng":"-45.27"}},{"city":"Bauru, SP, Brazil","coords":{"lat":"-22.316","lng":"-49.062"}},{"city":"Santa Cruz, Bolivia","coords":{"lat":"-17.779","lng":"-63.18"}},{"city":"San Juan, Argentina","coords":{"lat":"-31.555","lng":"-68.522"}},{"city":"Punto Fijo, Venezuela","coords":{"lat":"11.699","lng":"-70.199"}},{"city":"Lavras, MG, Brazil","coords":{"lat":"-21.223","lng":"-45.001"}},{"city":"Campina Grande, PB, Brazil","coords":{"lat":"-7.224","lng":"-35.891"}},{"city":"San Pedro de Cajas, Tarma, Peru","coords":{"lat":"-11.081","lng":"-75.802"}},{"city":"Tandil, Argentina","coords":{"lat":"-37.326","lng":"-59.108"}},{"city":"Campos dos Goytacazes, RJ, Brazil","coords":{"lat":"-21.755","lng":"-41.324"}},{"city":"Salto de Pirapora, SP, Brazil","coords":{"lat":"-23.648","lng":"-47.578"}},{"city":"Viradouro, SP, Brazil","coords":{"lat":"-20.872","lng":"-48.299"}},{"city":"Jundiai, SP, Brazil","coords":{"lat":"-23.188","lng":"-46.891"}},{"city":"Barra Bonita, SP, Brazil","coords":{"lat":"-22.471","lng":"-48.569"}},{"city":"Pasto, Colombia","coords":{"lat":"1.218","lng":"-77.278"}},{"city":"Caaguazu, Paraguay","coords":{"lat":"-25.195","lng":"-55.881"}},{"city":"Divinopolis, MG, Brazil","coords":{"lat":"-20.143","lng":"-44.911"}},{"city":"Alfenas, Brazil","coords":{"lat":"-21.425","lng":"-45.95"}},{"city":"Linhares, ES, Brazil","coords":{"lat":"-19.388","lng":"-40.052"}},{"city":"Formosa Do Oeste, PR, Brazil","coords":{"lat":"-24.298","lng":"-53.314"}},{"city":"Posadas, Argentina","coords":{"lat":"-27.377","lng":"-55.901"}},{"city":"Indaiatuba, SP, Brazil","coords":{"lat":"-23.08","lng":"-47.211"}},{"city":"Santa Rosa, Argentina","coords":{"lat":"-36.62","lng":"-64.293"}},{"city":"Laje, BA, Brazil","coords":{"lat":"-13.183","lng":"-39.422"}},{"city":"Varzea da Roca, BA, Brazil","coords":{"lat":"-11.602","lng":"-40.134"}},{"city":"Punta Alta, Argentina","coords":{"lat":"-38.878","lng":"-62.071"}},{"city":"Araripina, PE, Brazil","coords":{"lat":"-7.581","lng":"-40.499"}},{"city":"Aparecida de Goiania, GO, Brazil","coords":{"lat":"-16.763","lng":"-49.273"}},{"city":"Santa Fe, SP, Brazil","coords":{"lat":"-20.933","lng":"-47.883"}},{"city":"Vera Cruz, RS, Brazil","coords":{"lat":"-29.716","lng":"-52.505"}},{"city":"Aimogasta , Argentina","coords":{"lat":"-28.553","lng":"-66.813"}},{"city":"Sabaudia, PR, Brazil","coords":{"lat":"-23.326","lng":"-51.559"}},{"city":"Ituacu, BA, Brazil","coords":{"lat":"-13.816","lng":"-41.301"}},{"city":"Piraju, SP, Brazil","coords":{"lat":"-23.195","lng":"-49.382"}},{"city":"Santarém, PA, Brazil","coords":{"lat":"-2.44","lng":"-54.699"}},{"city":"Campos dos Goytacazes, Brazil","coords":{"lat":"-21.755","lng":"-41.324"}},{"city":"Abriaqui, Antioquia, Colombia","coords":{"lat":"6.692","lng":"-76.088"}},{"city":"Vila Velha, ES, Brazil","coords":{"lat":"-20.341","lng":"-40.286"}},{"city":"Cuiaba, MT, Brazil","coords":{"lat":"-15.599","lng":"-56.095"}},{"city":"Muriu, RN, Brazil","coords":{"lat":"-5.839","lng":"-36.678"}},{"city":"Curitiba , PR, Brazil","coords":{"lat":"-25.44","lng":"-49.277"}},{"city":"Paysandu, Uruguay","coords":{"lat":"-32.294","lng":"-58.089"}},{"city":"Irece , BA, Brazil","coords":{"lat":"-11.304","lng":"-41.854"}},{"city":"Higuerote, Venezuela","coords":{"lat":"10.487","lng":"-66.099"}},{"city":"Sao Jose do Rio Preto, SP, Brazil","coords":{"lat":"-20.844","lng":"-49.395"}},{"city":"Santa Maria, RS, Brazil","coords":{"lat":"-29.691","lng":"-53.801"}},{"city":"Quixeramobim, CE, Brazil","coords":{"lat":"-5.198","lng":"-39.296"}},{"city":"Elias Fausto, SP, Brazil","coords":{"lat":"-23.044","lng":"-47.375"}},{"city":"Salvador, BA, Brazil","coords":{"lat":"-12.971","lng":"-38.513"}},{"city":"Campos do Jordao, SP, Brazil","coords":{"lat":"-22.744","lng":"-45.599"}},{"city":"Pinhais, PR, Brazil","coords":{"lat":"-25.433","lng":"-49.185"}},{"city":"Maceio, AL, Brazil","coords":{"lat":"-9.667","lng":"-35.735"}},{"city":"Taubate, SP, Brazil","coords":{"lat":"-23.038","lng":"-45.569"}},{"city":"Cantagalo, RJ, Brazil","coords":{"lat":"-21.98","lng":"-42.358"}},{"city":"São Cristóvão, SE, Brazil","coords":{"lat":"-11.013","lng":"-37.221"}},{"city":"Guara, SP, Brazil","coords":{"lat":"-20.429","lng":"-47.825"}},{"city":"Trindade, GO, Brazil","coords":{"lat":"-16.655","lng":"-49.498"}},{"city":"Sumare, sp, Brazil","coords":{"lat":"-22.82","lng":"-47.289"}},{"city":"Tena, Napo, Ecuador","coords":{"lat":"-0.952","lng":"-77.855"}},{"city":"Libano, Colombia","coords":{"lat":"4.921","lng":"-75.065"}},{"city":"Caxias Do Sul, RS, Brazil","coords":{"lat":"-29.168","lng":"-51.179"}},{"city":"Paraguaçu, MG, Brazil","coords":{"lat":"-21.549","lng":"-45.736"}},{"city":"Estancia, SE, Brazil","coords":{"lat":"-11.264","lng":"-37.442"}},{"city":"Sao Pedro da Aldeia, RJ, Brazil","coords":{"lat":"-22.842","lng":"-42.1"}},{"city":"Arroio do Sal, RS, Brazil","coords":{"lat":"-29.55","lng":"-49.888"}},{"city":"Petrolandia, Brazil","coords":{"lat":"-9.183","lng":"-38.266"}},{"city":"Estancia, SE, Brazil","coords":{"lat":"-11.264","lng":"-37.442"}},{"city":"Siqueira Campos, PR, Brazil","coords":{"lat":"-23.683","lng":"-49.831"}},{"city":"Larroque , Argentina","coords":{"lat":"-33.035","lng":"-59"}},{"city":"Maracaju , MS, Brazil","coords":{"lat":"-21.627","lng":"-55.16"}},{"city":"Paysandú, Uruguay","coords":{"lat":"-32.294","lng":"-58.089"}},{"city":"Viçosa, RN, Brazil","coords":{"lat":"-5.992","lng":"-37.946"}},{"city":"Los Condores, Argentina","coords":{"lat":"-32.319","lng":"-64.279"}},{"city":"Guaratingueta, SP, Brazil","coords":{"lat":"-22.795","lng":"-45.173"}},{"city":"Maringá, PR, Brazil","coords":{"lat":"-23.426","lng":"-51.937"}},{"city":"Taua, CE, Brazil","coords":{"lat":"-6.002","lng":"-40.3"}},{"city":"Fray Luis Beltran, Argentina","coords":{"lat":"-32.788","lng":"-60.725"}},{"city":"San Felipe, Chile","coords":{"lat":"-32.75","lng":"-70.726"}},{"city":"Cedro, CE, Brazil","coords":{"lat":"-6.601","lng":"-39.061"}},{"city":"Santa Rita Do Sapucai, MG, Brazil","coords":{"lat":"-22.24","lng":"-45.71"}},{"city":"Ambato , Ecuador","coords":{"lat":"-1.249","lng":"-78.63"}},{"city":"Corrientes, Argentina","coords":{"lat":"-27.506","lng":"-58.822"}},{"city":"Sidrolandia , MS, Brazil","coords":{"lat":"-20.933","lng":"-54.966"}},